Trabajo 1/MartinLara/Satellite-MartinLaraSAT-To-Place-Altay_Access.csv

"Access","Start Time (UTCG)","Stop Time (UTCG)","Duration (sec)"
1,28 Jun 2022 10:47:46.784,28 Jun 2022 10:55:40.659,473.875
2,28 Jun 2022 12:18:58.264,28 Jun 2022 12:30:26.103,687.840
3,28 Jun 2022 13:53:51.276,28 Jun 2022 14:03:51.013,599.737
4,28 Jun 2022 23:45:40.296,28 Jun 2022 23:50:38.540,298.244
5,29 Jun 2022 01:17:21.404,29 Jun 2022 01:28:40.667,679.263
6,29 Jun 2022 02:51:22.440,29 Jun 2022 03:01:56.206,633.766
7,29 Jun 2022 04:27:19.105,29 Jun 2022 04:30:55.152,216.047
8,29 Jun 2022 10:30:08.293,29 Jun 2022 10:36:29.986,381.694
9,29 Jun 2022 12:00:28.817,29 Jun 2022 12:11:38.171,669.354
10,29 Jun 2022 13:34:35.244,29 Jun 2022 13:45:21.183,645.939
11,30 Jun 2022 00:58:45.544,30 Jun 2022 01:09:37.563,652.019
12,30 Jun 2022 02:32:31.305,30 Jun 2022 02:43:36.461,665.157
13,30 Jun 2022 04:07:44.353,30 Jun 2022 04:13:47.354,363.001
14,30 Jun 2022 10:12:53.574,30 Jun 2022 10:17:01.197,247.624
15,30 Jun 2022 11:42:07.649,30 Jun 2022 11:52:47.518,639.869
16,30 Jun 2022 13:15:30.409,30 Jun 2022 13:26:46.064,675.655
17,30 Jun 2022 14:53:52.523,30 Jun 2022 14:58:12.570,260.047
18,1 Jul 2022 00:40:14.692,1 Jul 2022 00:50:23.562,608.870
19,1 Jul 2022 02:13:42.919,1 Jul 2022 02:25:08.401,685.482
20,1 Jul 2022 03:48:31.685,1 Jul 2022 03:56:11.810,460.125
21,1 Jul 2022 11:23:55.093,1 Jul 2022 11:33:53.854,598.761
22,1 Jul 2022 12:56:35.320,1 Jul 2022 13:08:06.943,691.623
23,1 Jul 2022 14:33:24.681,1 Jul 2022 14:40:34.943,430.262
24,2 Jul 2022 00:21:51.006,2 Jul 2022 00:30:56.286,545.280
25,2 Jul 2022 01:54:57.206,2 Jul 2022 02:06:32.121,694.915
26,2 Jul 2022 03:29:28.135,2 Jul 2022 03:38:21.464,533.328
27,2 Jul 2022 11:05:51.839,2 Jul 2022 11:14:56.516,544.677
28,2 Jul 2022 12:37:49.121,2 Jul 2022 12:49:24.568,695.447
29,2 Jul 2022 14:13:35.023,2 Jul 2022 14:22:26.023,531.001
30,3 Jul 2022 00:03:39.049,3 Jul 2022 00:11:10.868,451.819
31,3 Jul 2022 01:36:14.293,3 Jul 2022 01:47:47.473,693.181
32,3 Jul 2022 03:10:30.012,3 Jul 2022 03:20:20.021,590.008
33,3 Jul 2022 10:47:59.299,3 Jul 2022 10:55:54.129,474.830
34,3 Jul 2022 12:19:11.346,3 Jul 2022 12:30:39.342,687.997
35,3 Jul 2022 13:54:04.944,3 Jul 2022 14:04:04.005,599.060
36,3 Jul 2022 23:45:52.518,3 Jul 2022 23:50:53.209,300.691
37,4 Jul 2022 01:17:34.546,4 Jul 2022 01:28:54.041,679.495
38,4 Jul 2022 02:51:35.747,4 Jul 2022 03:02:09.077,633.330
39,4 Jul 2022 04:27:33.208,4 Jul 2022 04:31:06.892,213.684
40,4 Jul 2022 10:30:20.606,4 Jul 2022 10:36:43.590,382.984
41,4 Jul 2022 12:00:41.803,4 Jul 2022 12:11:51.444,669.641
42,4 Jul 2022 13:34:48.760,4 Jul 2022 13:45:34.250,645.490
43,5 Jul 2022 00:58:58.631,5 Jul 2022 01:09:51.053,652.422
44,5 Jul 2022 02:32:44.581,5 Jul 2022 02:43:49.431,664.850
45,5 Jul 2022 04:07:57.975,5 Jul 2022 04:13:59.638,361.663
46,5 Jul 2022 10:13:05.450,5 Jul 2022 10:17:15.175,249.725
47,5 Jul 2022 11:42:20.533,5 Jul 2022 11:53:00.824,640.290
48,5 Jul 2022 13:15:43.805,5 Jul 2022 13:26:59.188,675.383
49,5 Jul 2022 14:54:07.462,5 Jul 2022 14:58:24.530,257.068
50,6 Jul 2022 00:40:27.711,6 Jul 2022 00:50:37.195,609.484
51,6 Jul 2022 02:13:56.161,6 Jul 2022 02:25:21.467,685.306
52,6 Jul 2022 03:48:45.159,6 Jul 2022 03:56:24.307,459.148
53,6 Jul 2022 11:24:07.870,6 Jul 2022 11:34:07.199,599.329
54,6 Jul 2022 12:56:48.605,6 Jul 2022 13:08:20.111,691.506
55,6 Jul 2022 14:33:38.838,6 Jul 2022 14:40:47.600,428.762
56,7 Jul 2022 00:22:03.922,7 Jul 2022 00:31:10.096,546.174
57,7 Jul 2022 01:55:10.417,7 Jul 2022 02:06:45.284,694.868
58,7 Jul 2022 03:29:41.532,7 Jul 2022 03:38:34.106,532.574
59,7 Jul 2022 11:06:04.495,7 Jul 2022 11:15:09.912,545.418
60,7 Jul 2022 12:38:02.307,7 Jul 2022 12:49:37.773,695.466
61,7 Jul 2022 14:13:48.878,7 Jul 2022 14:22:38.900,530.021
62,8 Jul 2022 00:03:51.784,8 Jul 2022 00:11:24.940,453.156
63,8 Jul 2022 01:36:27.469,8 Jul 2022 01:48:00.737,693.269
64,8 Jul 2022 03:10:43.357,8 Jul 2022 03:20:32.782,589.425
65,8 Jul 2022 10:48:11.815,8 Jul 2022 10:56:07.600,475.785
66,8 Jul 2022 12:19:24.428,8 Jul 2022 12:30:52.579,688.151
67,8 Jul 2022 13:54:18.612,8 Jul 2022 14:04:16.996,598.384
68,8 Jul 2022 23:46:04.755,8 Jul 2022 23:51:07.860,303.104
69,9 Jul 2022 01:17:47.682,9 Jul 2022 01:29:07.408,679.725
70,9 Jul 2022 02:51:49.052,9 Jul 2022 03:02:21.944,632.892
71,9 Jul 2022 04:27:47.318,9 Jul 2022 04:31:18.617,211.299
72,9 Jul 2022 10:30:32.921,9 Jul 2022 10:36:57.195,384.274
73,9 Jul 2022 12:00:54.787,9 Jul 2022 12:12:04.713,669.926
74,9 Jul 2022 13:35:02.280,9 Jul 2022 13:45:47.317,645.037
75,10 Jul 2022 00:59:11.718,10 Jul 2022 01:10:04.543,652.825
76,10 Jul 2022 02:32:57.853,10 Jul 2022 02:44:02.397,664.544
77,10 Jul 2022 04:08:11.596,10 Jul 2022 04:14:11.918,360.322
78,10 Jul 2022 10:13:17.333,10 Jul 2022 10:17:29.144,251.810
79,10 Jul 2022 11:42:33.417,10 Jul 2022 11:53:14.128,640.711
80,10 Jul 2022 13:15:57.201,10 Jul 2022 13:27:12.306,675.104
81,10 Jul 2022 14:54:22.421,10 Jul 2022 14:58:36.465,254.044
82,11 Jul 2022 00:40:40.730,11 Jul 2022 00:50:50.824,610.094
83,11 Jul 2022 02:14:09.402,11 Jul 2022 02:25:34.531,685.129
84,11 Jul 2022 03:48:58.632,11 Jul 2022 03:56:36.802,458.170
85,11 Jul 2022 11:24:20.647,11 Jul 2022 11:34:20.544,599.897
86,11 Jul 2022 12:57:01.890,11 Jul 2022 13:08:33.276,691.386
87,11 Jul 2022 14:33:53.001,11 Jul 2022 14:41:00.247,427.246
88,12 Jul 2022 00:22:16.839,12 Jul 2022 00:31:23.902,547.062
89,12 Jul 2022 01:55:23.627,12 Jul 2022 02:06:58.446,694.819
90,12 Jul 2022 03:29:54.927,12 Jul 2022 03:38:46.747,531.821
91,12 Jul 2022 11:06:17.153,12 Jul 2022 11:15:23.305,546.151
92,12 Jul 2022 12:38:15.490,12 Jul 2022 12:49:50.974,695.484
93,12 Jul 2022 14:14:02.740,12 Jul 2022 14:22:51.771,529.030
94,13 Jul 2022 00:04:04.521,13 Jul 2022 00:11:39.002,454.481
95,13 Jul 2022 01:36:40.647,13 Jul 2022 01:48:13.997,693.350
96,13 Jul 2022 03:10:56.703,13 Jul 2022 03:20:45.540,588.836
97,13 Jul 2022 10:48:24.332,13 Jul 2022 10:56:21.072,476.741
98,13 Jul 2022 12:19:37.512,13 Jul 2022 12:31:05.816,688.304
99,13 Jul 2022 13:54:32.282,13 Jul 2022 14:04:29.986,597.704
100,13 Jul 2022 23:46:17.006,13 Jul 2022 23:51:22.497,305.491
101,14 Jul 2022 01:18:00.820,14 Jul 2022 01:29:20.778,679.958
102,14 Jul 2022 02:52:02.357,14 Jul 2022 03:02:34.810,632.453
103,14 Jul 2022 04:28:01.439,14 Jul 2022 04:31:30.330,208.890
104,14 Jul 2022 10:30:45.238,14 Jul 2022 10:37:10.800,385.562
105,14 Jul 2022 12:01:07.773,14 Jul 2022 12:12:17.983,670.210
106,14 Jul 2022 13:35:15.802,14 Jul 2022 13:46:00.383,644.581
107,15 Jul 2022 00:59:24.806,15 Jul 2022 01:10:18.032,653.226
108,15 Jul 2022 02:33:11.126,15 Jul 2022 02:44:15.364,664.237
109,15 Jul 2022 04:08:25.220,15 Jul 2022 04:14:24.195,358.976
110,15 Jul 2022 10:13:29.226,15 Jul 2022 10:17:43.105,253.879
111,15 Jul 2022 11:42:46.302,15 Jul 2022 11:53:27.432,641.130
112,15 Jul 2022 13:16:10.599,15 Jul 2022 13:27:25.432,674.833
113,15 Jul 2022 14:54:37.404,15 Jul 2022 14:58:48.381,250.977
114,16 Jul 2022 00:40:53.751,16 Jul 2022 00:51:04.452,610.701
115,16 Jul 2022 02:14:22.645,16 Jul 2022 02:25:47.594,684.950
116,16 Jul 2022 03:49:12.108,16 Jul 2022 03:56:49.298,457.190
117,16 Jul 2022 11:24:33.426,16 Jul 2022 11:34:33.888,600.462
118,16 Jul 2022 12:57:15.178,16 Jul 2022 13:08:46.442,691.264
119,16 Jul 2022 14:34:07.167,16 Jul 2022 14:41:12.898,425.731
120,17 Jul 2022 00:22:29.758,17 Jul 2022 00:31:37.706,547.948
121,17 Jul 2022 01:55:36.838,17 Jul 2022 02:07:11.606,694.768
122,17 Jul 2022 03:30:08.324,17 Jul 2022 03:38:59.387,531.063
123,17 Jul 2022 11:06:29.815,17 Jul 2022 11:15:36.699,546.884
124,17 Jul 2022 12:38:28.674,17 Jul 2022 12:50:04.177,695.503
125,17 Jul 2022 14:14:16.605,17 Jul 2022 14:23:04.641,528.036
126,18 Jul 2022 00:04:17.258,18 Jul 2022 00:11:53.066,455.808
127,18 Jul 2022 01:36:53.824,18 Jul 2022 01:48:27.258,693.434
128,18 Jul 2022 03:11:10.050,18 Jul 2022 03:20:58.298,588.248
129,18 Jul 2022 10:48:36.852,18 Jul 2022 10:56:34.541,477.689
130,18 Jul 2022 12:19:50.597,18 Jul 2022 12:31:19.052,688.455
131,18 Jul 2022 13:54:45.952,18 Jul 2022 14:04:42.975,597.022
132,18 Jul 2022 23:46:29.264,18 Jul 2022 23:51:37.124,307.860
133,19 Jul 2022 01:18:13.957,19 Jul 2022 01:29:34.146,680.189
134,19 Jul 2022 02:52:15.663,19 Jul 2022 03:02:47.675,632.011
135,19 Jul 2022 04:28:15.577,19 Jul 2022 04:31:42.022,206.445
136,19 Jul 2022 10:30:57.560,19 Jul 2022 10:37:24.399,386.839
137,19 Jul 2022 12:01:20.759,19 Jul 2022 12:12:31.251,670.492
138,19 Jul 2022 13:35:29.324,19 Jul 2022 13:46:13.449,644.124
139,20 Jul 2022 00:59:37.893,20 Jul 2022 01:10:31.519,653.626
140,20 Jul 2022 02:33:24.399,20 Jul 2022 02:44:28.327,663.928
141,20 Jul 2022 04:08:38.847,20 Jul 2022 04:14:36.466,357.619
142,20 Jul 2022 10:13:41.131,20 Jul 2022 10:17:57.052,255.922
143,20 Jul 2022 11:42:59.187,20 Jul 2022 11:53:40.734,641.546
144,20 Jul 2022 13:16:23.997,20 Jul 2022 13:27:38.553,674.556
145,20 Jul 2022 14:54:52.404,20 Jul 2022 14:59:00.277,247.874
146,21 Jul 2022 00:41:06.770,21 Jul 2022 00:51:18.077,611.307
147,21 Jul 2022 02:14:35.885,21 Jul 2022 02:26:00.655,684.769
148,21 Jul 2022 03:49:25.583,21 Jul 2022 03:57:01.786,456.203
149,21 Jul 2022 11:24:46.205,21 Jul 2022 11:34:47.229,601.023
150,21 Jul 2022 12:57:28.464,21 Jul 2022 13:08:59.605,691.141
151,21 Jul 2022 14:34:21.335,21 Jul 2022 14:41:25.540,424.206
152,22 Jul 2022 00:22:42.679,22 Jul 2022 00:31:51.506,548.828
153,22 Jul 2022 01:55:50.048,22 Jul 2022 02:07:24.764,694.716
154,22 Jul 2022 03:30:21.722,22 Jul 2022 03:39:12.023,530.301
155,22 Jul 2022 11:06:42.476,22 Jul 2022 11:15:50.090,547.615
156,22 Jul 2022 12:38:41.857,22 Jul 2022 12:50:17.378,695.521
157,22 Jul 2022 14:14:30.469,22 Jul 2022 14:23:17.508,527.039
158,23 Jul 2022 00:04:29.997,23 Jul 2022 00:12:07.123,457.126
159,23 Jul 2022 01:37:06.999,23 Jul 2022 01:48:40.515,693.516
160,23 Jul 2022 03:11:23.394,23 Jul 2022 03:21:11.053,587.659
161,23 Jul 2022 10:48:49.371,23 Jul 2022 10:56:48.006,478.635
162,23 Jul 2022 12:20:03.680,23 Jul 2022 12:31:32.285,688.605
163,23 Jul 2022 13:54:59.623,23 Jul 2022 14:04:55.960,596.337
164,23 Jul 2022 23:46:41.532,23 Jul 2022 23:51:51.735,310.203
165,24 Jul 2022 01:18:27.093,24 Jul 2022 01:29:47.510,680.418
166,24 Jul 2022 02:52:28.967,24 Jul 2022 03:03:00.536,631.569
167,24 Jul 2022 04:28:29.727,24 Jul 2022 04:31:53.700,203.973
168,24 Jul 2022 10:31:09.882,24 Jul 2022 10:37:37.992,388.110
169,24 Jul 2022 12:01:33.745,24 Jul 2022 12:12:44.517,670.772
170,24 Jul 2022 13:35:42.847,24 Jul 2022 13:46:26.511,643.664
171,25 Jul 2022 00:59:50.979,25 Jul 2022 01:10:45.002,654.023
172,25 Jul 2022 02:33:37.670,25 Jul 2022 02:44:41.288,663.618
173,25 Jul 2022 04:08:52.474,25 Jul 2022 04:14:48.733,356.260
174,25 Jul 2022 10:13:53.041,25 Jul 2022 10:18:10.993,257.952
175,25 Jul 2022 11:43:12.073,25 Jul 2022 11:53:54.034,641.962
176,25 Jul 2022 13:16:37.395,25 Jul 2022 13:27:51.671,674.276
177,25 Jul 2022 14:55:07.428,25 Jul 2022 14:59:12.148,244.720
178,26 Jul 2022 00:41:19.792,26 Jul 2022 00:51:31.699,611.907
179,26 Jul 2022 02:14:49.126,26 Jul 2022 02:26:13.713,684.587
180,26 Jul 2022 03:49:39.058,26 Jul 2022 03:57:14.273,455.215
181,26 Jul 2022 11:24:58.984,26 Jul 2022 11:35:00.569,601.584
182,26 Jul 2022 12:57:41.751,26 Jul 2022 13:09:12.768,691.017
183,26 Jul 2022 14:34:35.507,26 Jul 2022 14:41:38.177,422.669
184,27 Jul 2022 00:22:55.598,27 Jul 2022 00:32:05.303,549.705
185,27 Jul 2022 01:56:03.257,27 Jul 2022 02:07:37.919,694.662
186,27 Jul 2022 03:30:35.118,27 Jul 2022 03:39:24.659,529.541
187,27 Jul 2022 11:06:55.138,27 Jul 2022 11:16:03.481,548.343
188,27 Jul 2022 12:38:55.041,27 Jul 2022 12:50:30.577,695.536
189,27 Jul 2022 14:14:44.337,27 Jul 2022 14:23:30.372,526.036
190,28 Jul 2022 00:04:42.739,28 Jul 2022 00:12:21.176,458.438
191,28 Jul 2022 01:37:20.175,28 Jul 2022 01:48:53.772,693.597
192,28 Jul 2022 03:11:36.738,28 Jul 2022 03:21:23.807,587.069
193,28 Jul 2022 10:49:01.893,28 Jul 2022 10:57:01.471,479.578
194,28 Jul 2022 12:20:16.766,28 Jul 2022 12:31:45.519,688.753
195,28 Jul 2022 13:55:13.296,28 Jul 2022 14:05:08.945,595.649
196,28 Jul 2022 23:46:53.811,28 Jul 2022 23:52:06.335,312.524
197,29 Jul 2022 01:18:40.229,29 Jul 2022 01:30:00.874,680.645
198,29 Jul 2022 02:52:42.272,29 Jul 2022 03:03:13.396,631.125
199,29 Jul 2022 04:28:43.894,29 Jul 2022 04:32:05.357,201.463
200,29 Jul 2022 10:31:22.203,29 Jul 2022 10:37:51.589,389.386
201,29 Jul 2022 12:01:46.728,29 Jul 2022 12:12:57.780,671.053
202,29 Jul 2022 13:35:56.376,29 Jul 2022 13:46:39.576,643.200
203,30 Jul 2022 01:00:04.066,30 Jul 2022 01:10:58.484,654.418
204,30 Jul 2022 02:33:50.939,30 Jul 2022 02:44:54.249,663.309
205,30 Jul 2022 04:09:06.105,30 Jul 2022 04:15:00.997,354.892
206,30 Jul 2022 10:14:04.962,30 Jul 2022 10:18:24.923,259.960
207,30 Jul 2022 11:43:24.960,30 Jul 2022 11:54:07.334,642.374
208,30 Jul 2022 13:16:50.794,30 Jul 2022 13:28:04.788,673.994
209,30 Jul 2022 14:55:22.474,30 Jul 2022 14:59:23.999,241.525
210,31 Jul 2022 00:41:32.811,31 Jul 2022 00:51:45.319,612.508
211,31 Jul 2022 02:15:02.367,31 Jul 2022 02:26:26.771,684.404
212,31 Jul 2022 03:49:52.536,31 Jul 2022 03:57:26.757,454.221
213,31 Jul 2022 11:25:11.766,31 Jul 2022 11:35:13.908,602.142
214,31 Jul 2022 12:57:55.040,31 Jul 2022 13:09:25.930,690.890
215,31 Jul 2022 14:34:49.684,31 Jul 2022 14:41:50.810,421.126
216,1 Aug 2022 00:23:08.518,1 Aug 2022 00:32:19.098,550.580
217,1 Aug 2022 01:56:16.467,1 Aug 2022 02:07:51.074,694.607
218,1 Aug 2022 03:30:48.515,1 Aug 2022 03:39:37.291,528.776
219,1 Aug 2022 11:07:07.802,1 Aug 2022 11:16:16.870,549.068
220,1 Aug 2022 12:39:08.226,1 Aug 2022 12:50:43.776,695.550
221,1 Aug 2022 14:14:58.206,1 Aug 2022 14:23:43.236,525.031
222,2 Aug 2022 00:04:55.481,2 Aug 2022 00:12:35.226,459.745
223,2 Aug 2022 01:37:33.351,2 Aug 2022 01:49:07.027,693.676
224,2 Aug 2022 03:11:50.079,2 Aug 2022 03:21:36.559,586.480
225,2 Aug 2022 10:49:14.417,2 Aug 2022 10:57:14.932,480.514
226,2 Aug 2022 12:20:29.852,2 Aug 2022 12:31:58.751,688.899
227,2 Aug 2022 13:55:26.969,2 Aug 2022 14:05:21.929,594.959
228,2 Aug 2022 23:47:06.096,2 Aug 2022 23:52:20.925,314.829
229,3 Aug 2022 01:18:53.365,3 Aug 2022 01:30:14.236,680.871
230,3 Aug 2022 02:52:55.577,3 Aug 2022 03:03:26.254,630.678
231,3 Aug 2022 04:28:58.080,3 Aug 2022 04:32:16.997,198.917
232,3 Aug 2022 10:31:34.533,3 Aug 2022 10:38:05.176,390.643
233,3 Aug 2022 12:01:59.715,3 Aug 2022 12:13:11.045,671.330
234,3 Aug 2022 13:36:09.900,3 Aug 2022 13:46:52.637,642.737
235,4 Aug 2022 01:00:17.152,4 Aug 2022 01:11:11.963,654.811
236,4 Aug 2022 02:34:04.211,4 Aug 2022 02:45:07.206,662.995
237,4 Aug 2022 04:09:19.738,4 Aug 2022 04:15:13.254,353.515
238,4 Aug 2022 10:14:16.894,4 Aug 2022 10:18:38.841,261.947
239,4 Aug 2022 11:43:37.847,4 Aug 2022 11:54:20.632,642.785
240,4 Aug 2022 13:17:04.194,4 Aug 2022 13:28:17.905,673.711
241,4 Aug 2022 14:55:37.541,4 Aug 2022 14:59:35.827,238.286
242,5 Aug 2022 00:41:45.830,5 Aug 2022 00:51:58.936,613.106
243,5 Aug 2022 02:15:15.606,5 Aug 2022 02:26:39.825,684.219
244,5 Aug 2022 03:50:06.014,5 Aug 2022 03:57:39.237,453.223
245,5 Aug 2022 11:25:24.547,5 Aug 2022 11:35:27.244,602.697
246,5 Aug 2022 12:58:08.327,5 Aug 2022 13:09:39.090,690.762
247,5 Aug 2022 14:35:03.863,5 Aug 2022 14:42:03.441,419.578
248,6 Aug 2022 00:23:21.434,6 Aug 2022 00:32:32.886,551.452
249,6 Aug 2022 01:56:29.672,6 Aug 2022 02:08:04.230,694.558
250,6 Aug 2022 03:31:01.907,6 Aug 2022 03:39:49.920,528.013
251,6 Aug 2022 11:07:20.470,6 Aug 2022 11:16:30.260,549.790
252,6 Aug 2022 12:39:21.410,6 Aug 2022 12:50:56.972,695.562
253,6 Aug 2022 14:15:12.072,6 Aug 2022 14:23:56.096,524.024
254,7 Aug 2022 00:05:08.225,7 Aug 2022 00:12:49.272,461.047
255,7 Aug 2022 01:37:46.524,7 Aug 2022 01:49:20.279,693.754
256,7 Aug 2022 03:12:03.425,7 Aug 2022 03:21:49.305,585.880
257,7 Aug 2022 10:49:26.942,7 Aug 2022 10:57:28.390,481.448
258,7 Aug 2022 12:20:42.937,7 Aug 2022 12:32:11.981,689.045
259,7 Aug 2022 13:55:40.643,7 Aug 2022 14:05:34.910,594.267
260,7 Aug 2022 23:47:18.392,7 Aug 2022 23:52:35.501,317.109
261,8 Aug 2022 01:19:06.500,8 Aug 2022 01:30:27.594,681.094
262,8 Aug 2022 02:53:08.881,8 Aug 2022 03:03:39.110,630.229
263,8 Aug 2022 04:29:12.279,8 Aug 2022 04:32:28.621,196.343
264,8 Aug 2022 10:31:46.864,8 Aug 2022 10:38:18.761,391.896
265,8 Aug 2022 12:02:12.702,8 Aug 2022 12:13:24.308,671.605
266,8 Aug 2022 13:36:23.424,8 Aug 2022 13:47:05.696,642.271
267,9 Aug 2022 01:00:30.238,9 Aug 2022 01:11:25.440,655.202
268,9 Aug 2022 02:34:17.482,9 Aug 2022 02:45:20.162,662.680
269,9 Aug 2022 04:09:33.374,9 Aug 2022 04:15:25.508,352.134
270,9 Aug 2022 10:14:28.831,9 Aug 2022 10:18:52.753,263.922
271,9 Aug 2022 11:43:50.734,9 Aug 2022 11:54:33.928,643.194
272,9 Aug 2022 13:17:17.593,9 Aug 2022 13:28:31.019,673.426
273,9 Aug 2022 14:55:52.635,9 Aug 2022 14:59:47.627,234.991
274,10 Aug 2022 00:41:58.850,10 Aug 2022 00:52:12.551,613.701
275,10 Aug 2022 02:15:28.846,10 Aug 2022 02:26:52.878,684.032
276,10 Aug 2022 03:50:19.492,10 Aug 2022 03:57:51.715,452.223
277,10 Aug 2022 11:25:37.329,10 Aug 2022 11:35:40.580,603.251
278,10 Aug 2022 12:58:21.616,10 Aug 2022 13:09:52.249,690.633
279,10 Aug 2022 14:35:18.048,10 Aug 2022 14:42:16.065,418.016
280,11 Aug 2022 00:23:34.355,11 Aug 2022 00:32:46.674,552.319
281,11 Aug 2022 01:56:42.881,11 Aug 2022 02:08:17.380,694.500
282,11 Aug 2022 03:31:15.304,11 Aug 2022 03:40:02.548,527.243
283,11 Aug 2022 11:07:33.136,11 Aug 2022 11:16:43.646,550.510
284,11 Aug 2022 12:39:34.597,11 Aug 2022 12:51:10.169,695.572
285,11 Aug 2022 14:15:25.945,11 Aug 2022 14:24:08.954,523.009
286,12 Aug 2022 00:05:20.973,12 Aug 2022 00:13:03.311,462.338
287,12 Aug 2022 01:37:59.700,12 Aug 2022 01:49:33.530,693.830
288,12 Aug 2022 03:12:16.770,12 Aug 2022 03:22:02.053,585.283
289,12 Aug 2022 10:49:39.469,12 Aug 2022 10:57:41.848,482.379
290,12 Aug 2022 12:20:56.024,12 Aug 2022 12:32:25.210,689.185
291,12 Aug 2022 13:55:54.320,12 Aug 2022 14:05:47.891,593.571
292,12 Aug 2022 23:47:30.697,12 Aug 2022 23:52:50.068,319.371
293,13 Aug 2022 01:19:19.636,13 Aug 2022 01:30:40.953,681.317
294,13 Aug 2022 02:53:22.190,13 Aug 2022 03:03:51.965,629.775
295,13 Aug 2022 04:29:26.498,13 Aug 2022 04:32:40.226,193.728
296,13 Aug 2022 10:31:59.200,13 Aug 2022 10:38:32.343,393.143
297,13 Aug 2022 12:02:25.692,13 Aug 2022 12:13:37.571,671.879
298,13 Aug 2022 13:36:36.952,13 Aug 2022 13:47:18.755,641.803
299,14 Aug 2022 01:00:43.325,14 Aug 2022 01:11:38.917,655.591
300,14 Aug 2022 02:34:30.755,14 Aug 2022 02:45:33.117,662.362
301,14 Aug 2022 04:09:47.013,14 Aug 2022 04:15:37.757,350.744
302,14 Aug 2022 10:14:40.780,14 Aug 2022 10:19:06.654,265.874
303,14 Aug 2022 11:44:03.624,14 Aug 2022 11:54:47.225,643.601
304,14 Aug 2022 13:17:30.995,14 Aug 2022 13:28:44.135,673.139
305,14 Aug 2022 14:56:07.754,14 Aug 2022 14:59:59.405,231.651
306,15 Aug 2022 00:42:11.870,15 Aug 2022 00:52:26.165,614.294
307,15 Aug 2022 02:15:42.086,15 Aug 2022 02:27:05.930,683.844
308,15 Aug 2022 03:50:32.974,15 Aug 2022 03:58:04.190,451.217
309,15 Aug 2022 11:25:50.113,15 Aug 2022 11:35:53.915,603.802
310,15 Aug 2022 12:58:34.907,15 Aug 2022 13:10:05.408,690.501
311,15 Aug 2022 14:35:32.237,15 Aug 2022 14:42:28.690,416.453
312,16 Aug 2022 00:23:47.276,16 Aug 2022 00:33:00.460,553.184
313,16 Aug 2022 01:56:56.089,16 Aug 2022 02:08:30.529,694.440
314,16 Aug 2022 03:31:28.703,16 Aug 2022 03:40:15.172,526.468
315,16 Aug 2022 11:07:45.804,16 Aug 2022 11:16:57.030,551.225
316,16 Aug 2022 12:39:47.784,16 Aug 2022 12:51:23.364,695.580
317,16 Aug 2022 14:15:39.819,16 Aug 2022 14:24:21.812,521.993
318,17 Aug 2022 00:05:33.720,17 Aug 2022 00:13:17.348,463.628
319,17 Aug 2022 01:38:12.874,17 Aug 2022 01:49:46.779,693.905
320,17 Aug 2022 03:12:30.116,17 Aug 2022 03:22:14.798,584.682
321,17 Aug 2022 10:49:51.998,17 Aug 2022 10:57:55.302,483.304
322,17 Aug 2022 12:21:09.112,17 Aug 2022 12:32:38.439,689.327
323,17 Aug 2022 13:56:07.991,17 Aug 2022 14:06:00.870,592.879
324,17 Aug 2022 23:47:43.007,17 Aug 2022 23:53:04.624,321.617
325,18 Aug 2022 01:19:32.771,18 Aug 2022 01:30:54.308,681.537
326,18 Aug 2022 02:53:35.490,18 Aug 2022 03:04:04.817,629.327
327,18 Aug 2022 04:29:40.738,18 Aug 2022 04:32:51.806,191.068
328,18 Aug 2022 10:32:11.538,18 Aug 2022 10:38:45.919,394.381
329,18 Aug 2022 12:02:38.681,18 Aug 2022 12:13:50.831,672.150
330,18 Aug 2022 13:36:50.478,18 Aug 2022 13:47:31.812,641.334
331,19 Aug 2022 01:00:56.410,19 Aug 2022 01:11:52.389,655.979
332,19 Aug 2022 02:34:44.024,19 Aug 2022 02:45:46.069,662.045
333,19 Aug 2022 04:10:00.656,19 Aug 2022 04:15:49.999,349.343
334,19 Aug 2022 10:14:52.738,19 Aug 2022 10:19:20.544,267.806
335,19 Aug 2022 11:44:16.513,19 Aug 2022 11:55:00.518,644.005
336,19 Aug 2022 13:17:44.396,19 Aug 2022 13:28:57.247,672.851
337,19 Aug 2022 14:56:22.897,19 Aug 2022 15:00:11.157,228.260
338,20 Aug 2022 00:42:24.889,20 Aug 2022 00:52:39.774,614.886
339,20 Aug 2022 02:15:55.325,20 Aug 2022 02:27:18.979,683.654
340,20 Aug 2022 03:50:46.454,20 Aug 2022 03:58:16.661,450.207
341,20 Aug 2022 11:26:02.897,20 Aug 2022 11:36:07.247,604.350
342,20 Aug 2022 12:58:48.196,20 Aug 2022 13:10:18.565,690.369
343,20 Aug 2022 14:35:46.428,20 Aug 2022 14:42:41.307,414.879
344,21 Aug 2022 00:24:00.196,21 Aug 2022 00:33:14.242,554.046
345,21 Aug 2022 01:57:09.297,21 Aug 2022 02:08:43.676,694.379
346,21 Aug 2022 03:31:42.101,21 Aug 2022 03:40:27.793,525.691
347,21 Aug 2022 11:07:58.472,21 Aug 2022 11:17:10.411,551.939
348,21 Aug 2022 12:40:00.971,21 Aug 2022 12:51:36.558,695.587
349,21 Aug 2022 14:15:53.694,21 Aug 2022 14:24:34.667,520.973
350,22 Aug 2022 00:05:46.470,22 Aug 2022 00:13:31.380,464.911
351,22 Aug 2022 01:38:26.048,22 Aug 2022 01:50:00.025,693.978
352,22 Aug 2022 03:12:43.461,22 Aug 2022 03:22:27.541,584.080
353,22 Aug 2022 10:50:04.528,22 Aug 2022 10:58:08.754,484.226
354,22 Aug 2022 12:21:22.199,22 Aug 2022 12:32:51.666,689.468
355,22 Aug 2022 13:56:21.668,22 Aug 2022 14:06:13.847,592.179
356,22 Aug 2022 23:47:55.327,22 Aug 2022 23:53:19.168,323.841
357,23 Aug 2022 01:19:45.905,23 Aug 2022 01:31:07.661,681.756
358,23 Aug 2022 02:53:48.794,23 Aug 2022 03:04:17.667,628.873
359,23 Aug 2022 04:29:54.994,23 Aug 2022 04:33:03.368,188.374
360,23 Aug 2022 10:32:23.879,23 Aug 2022 10:38:59.493,395.614
361,23 Aug 2022 12:02:51.671,23 Aug 2022 12:14:04.091,672.420
362,23 Aug 2022 13:37:04.001,23 Aug 2022 13:47:44.868,640.867
363,24 Aug 2022 01:01:09.496,24 Aug 2022 01:12:05.861,656.365
364,24 Aug 2022 02:34:57.295,24 Aug 2022 02:45:59.019,661.724
365,24 Aug 2022 04:10:14.302,24 Aug 2022 04:16:02.238,347.936
366,24 Aug 2022 10:15:04.703,24 Aug 2022 10:19:34.428,269.724
367,24 Aug 2022 11:44:29.407,24 Aug 2022 11:55:13.811,644.404
368,24 Aug 2022 13:17:57.798,24 Aug 2022 13:29:10.360,672.561
369,24 Aug 2022 14:56:38.070,24 Aug 2022 15:00:22.880,224.810
370,25 Aug 2022 00:42:37.909,25 Aug 2022 00:52:53.382,615.474
371,25 Aug 2022 02:16:08.565,25 Aug 2022 02:27:32.027,683.463
372,25 Aug 2022 03:50:59.937,25 Aug 2022 03:58:29.131,449.193
373,25 Aug 2022 11:26:15.683,25 Aug 2022 11:36:20.579,604.896
374,25 Aug 2022 12:59:01.487,25 Aug 2022 13:10:31.721,690.234
375,25 Aug 2022 14:36:00.624,25 Aug 2022 14:42:53.920,413.296
376,26 Aug 2022 00:24:13.119,26 Aug 2022 00:33:28.023,554.904
377,26 Aug 2022 01:57:22.505,26 Aug 2022 02:08:56.821,694.316
378,26 Aug 2022 03:31:55.501,26 Aug 2022 03:40:40.412,524.912
379,26 Aug 2022 11:08:11.142,26 Aug 2022 11:17:23.791,552.649
380,26 Aug 2022 12:40:14.157,26 Aug 2022 12:51:49.752,695.595
381,26 Aug 2022 14:16:07.572,26 Aug 2022 14:24:47.521,519.948
382,27 Aug 2022 00:05:59.221,27 Aug 2022 00:13:45.410,466.188
383,27 Aug 2022 01:38:39.223,27 Aug 2022 01:50:13.271,694.049
384,27 Aug 2022 03:12:56.805,27 Aug 2022 03:22:40.282,583.478
385,27 Aug 2022 10:50:17.061,27 Aug 2022 10:58:22.205,485.143
386,27 Aug 2022 12:21:35.288,27 Aug 2022 12:33:04.893,689.605
387,27 Aug 2022 13:56:35.348,27 Aug 2022 14:06:26.824,591.476
388,27 Aug 2022 23:48:07.655,27 Aug 2022 23:53:33.704,326.049
389,28 Aug 2022 01:19:59.040,28 Aug 2022 01:31:21.014,681.974
390,28 Aug 2022 02:54:02.100,28 Aug 2022 03:04:30.516,628.416
391,28 Aug 2022 04:30:09.275,28 Aug 2022 04:33:14.905,185.630
392,28 Aug 2022 10:32:36.224,28 Aug 2022 10:39:13.064,396.839
393,28 Aug 2022 12:03:04.662,28 Aug 2022 12:14:17.346,672.684
394,28 Aug 2022 13:37:17.530,28 Aug 2022 13:47:57.924,640.393
395,29 Aug 2022 01:01:22.582,29 Aug 2022 01:12:19.331,656.749
396,29 Aug 2022 02:35:10.567,29 Aug 2022 02:46:11.968,661.402
397,29 Aug 2022 04:10:27.953,29 Aug 2022 04:16:14.472,346.518
398,29 Aug 2022 10:15:16.680,29 Aug 2022 10:19:48.301,271.621
399,29 Aug 2022 11:44:42.299,29 Aug 2022 11:55:27.104,644.804
400,29 Aug 2022 13:18:11.202,29 Aug 2022 13:29:23.472,672.270
401,29 Aug 2022 14:56:53.269,29 Aug 2022 15:00:34.578,221.309
402,30 Aug 2022 00:42:50.928,30 Aug 2022 00:53:06.989,616.061
403,30 Aug 2022 02:16:21.805,30 Aug 2022 02:27:45.074,683.269
404,30 Aug 2022 03:51:13.423,30 Aug 2022 03:58:41.596,448.173
405,30 Aug 2022 11:26:28.470,30 Aug 2022 11:36:33.909,605.439
406,30 Aug 2022 12:59:14.779,30 Aug 2022 13:10:44.878,690.098
407,30 Aug 2022 14:36:14.824,30 Aug 2022 14:43:06.533,411.708
408,31 Aug 2022 00:24:26.040,31 Aug 2022 00:33:41.801,555.761
409,31 Aug 2022 01:57:35.713,31 Aug 2022 02:09:09.965,694.252
410,31 Aug 2022 03:32:08.902,31 Aug 2022 03:40:53.029,524.127
411,31 Aug 2022 11:08:23.814,31 Aug 2022 11:17:37.169,553.355
412,31 Aug 2022 12:40:27.346,31 Aug 2022 12:52:02.945,695.599
413,31 Aug 2022 14:16:21.452,31 Aug 2022 14:25:00.373,518.922
414,1 Sep 2022 00:06:11.973,1 Sep 2022 00:13:59.435,467.462
415,1 Sep 2022 01:38:52.396,1 Sep 2022 01:50:26.515,694.119
416,1 Sep 2022 03:13:10.151,1 Sep 2022 03:22:53.021,582.870
417,1 Sep 2022 10:50:29.597,1 Sep 2022 10:58:35.651,486.055
418,1 Sep 2022 12:21:48.378,1 Sep 2022 12:33:18.119,689.741
419,1 Sep 2022 13:56:49.028,1 Sep 2022 14:06:39.800,590.772
420,1 Sep 2022 23:48:19.988,1 Sep 2022 23:53:48.230,328.242
421,2 Sep 2022 01:20:12.174,2 Sep 2022 01:31:34.364,682.190
422,2 Sep 2022 02:54:15.406,2 Sep 2022 03:04:43.362,627.956
423,2 Sep 2022 04:30:23.579,2 Sep 2022 04:33:26.415,182.836
424,2 Sep 2022 10:32:48.573,2 Sep 2022 10:39:26.629,398.056
425,2 Sep 2022 12:03:17.654,2 Sep 2022 12:14:30.607,672.953
426,2 Sep 2022 13:37:31.059,2 Sep 2022 13:48:10.978,639.919
427,3 Sep 2022 01:01:35.667,3 Sep 2022 01:12:32.798,657.132
428,3 Sep 2022 02:35:23.838,3 Sep 2022 02:46:24.915,661.077
429,3 Sep 2022 04:10:41.607,3 Sep 2022 04:16:26.699,345.092
430,3 Sep 2022 10:15:28.663,3 Sep 2022 10:20:02.164,273.500
431,3 Sep 2022 11:44:55.191,3 Sep 2022 11:55:40.393,645.202
432,3 Sep 2022 13:18:24.605,3 Sep 2022 13:29:36.582,671.977
433,3 Sep 2022 14:57:08.499,3 Sep 2022 15:00:46.246,217.747
434,4 Sep 2022 00:43:03.947,4 Sep 2022 00:53:20.593,616.646
435,4 Sep 2022 02:16:35.043,4 Sep 2022 02:27:58.117,683.074
436,4 Sep 2022 03:51:26.909,4 Sep 2022 03:58:54.058,447.149
437,4 Sep 2022 11:26:41.257,4 Sep 2022 11:36:47.237,605.979
438,4 Sep 2022 12:59:28.071,4 Sep 2022 13:10:58.032,689.961
439,4 Sep 2022 14:36:29.028,4 Sep 2022 14:43:19.139,410.111
440,5 Sep 2022 00:24:38.962,5 Sep 2022 00:33:55.575,556.613
441,5 Sep 2022 01:57:48.921,5 Sep 2022 02:09:23.106,694.186
442,5 Sep 2022 03:32:22.303,5 Sep 2022 03:41:05.643,523.340
443,5 Sep 2022 11:08:36.486,5 Sep 2022 11:17:50.545,554.059
444,5 Sep 2022 12:40:40.534,5 Sep 2022 12:52:16.136,695.601
445,5 Sep 2022 14:16:35.332,5 Sep 2022 14:25:13.223,517.890
446,6 Sep 2022 00:06:24.727,6 Sep 2022 00:14:13.453,468.726
447,6 Sep 2022 01:39:05.570,6 Sep 2022 01:50:39.757,694.187
448,6 Sep 2022 03:13:23.497,6 Sep 2022 03:23:05.757,582.260
449,6 Sep 2022 10:50:42.132,6 Sep 2022 10:58:49.097,486.964
450,6 Sep 2022 12:22:01.467,6 Sep 2022 12:33:31.344,689.877
451,6 Sep 2022 13:57:02.709,6 Sep 2022 14:06:52.774,590.065
452,6 Sep 2022 23:48:32.331,6 Sep 2022 23:54:02.744,330.413
453,7 Sep 2022 01:20:25.309,7 Sep 2022 01:31:47.712,682.404
454,7 Sep 2022 02:54:28.711,7 Sep 2022 03:04:56.206,627.495
455,7 Sep 2022 04:30:37.902,7 Sep 2022 04:33:37.905,180.003
456,7 Sep 2022 10:33:00.923,7 Sep 2022 10:39:40.193,399.270
457,7 Sep 2022 12:03:30.646,7 Sep 2022 12:14:43.863,673.217
458,7 Sep 2022 13:37:44.590,7 Sep 2022 13:48:24.032,639.441
459,8 Sep 2022 01:01:48.753,8 Sep 2022 01:12:46.264,657.512
460,8 Sep 2022 02:35:37.107,8 Sep 2022 02:46:37.860,660.754
461,8 Sep 2022 04:10:55.263,8 Sep 2022 04:16:38.923,343.660
462,8 Sep 2022 10:15:40.654,8 Sep 2022 10:20:16.022,275.368
463,8 Sep 2022 11:45:08.085,8 Sep 2022 11:55:53.684,645.599
464,8 Sep 2022 13:18:38.011,8 Sep 2022 13:29:49.693,671.682
465,8 Sep 2022 14:57:23.763,8 Sep 2022 15:00:57.880,214.117
466,9 Sep 2022 00:43:16.968,9 Sep 2022 00:53:34.195,617.227
467,9 Sep 2022 02:16:48.283,9 Sep 2022 02:28:11.161,682.878
468,9 Sep 2022 03:51:40.397,9 Sep 2022 03:59:06.518,446.122
469,9 Sep 2022 11:26:54.047,9 Sep 2022 11:37:00.565,606.518
470,9 Sep 2022 12:59:41.365,9 Sep 2022 13:11:11.187,689.822
471,9 Sep 2022 14:36:43.238,9 Sep 2022 14:43:31.742,408.505
472,10 Sep 2022 00:24:51.886,10 Sep 2022 00:34:09.348,557.462
473,10 Sep 2022 01:58:02.129,10 Sep 2022 02:09:36.248,694.118
474,10 Sep 2022 03:32:35.706,10 Sep 2022 03:41:18.256,522.550
475,10 Sep 2022 11:08:49.157,10 Sep 2022 11:18:03.918,554.761
476,10 Sep 2022 12:40:53.726,10 Sep 2022 12:52:29.332,695.606
477,10 Sep 2022 14:16:49.220,10 Sep 2022 14:25:26.072,516.852
478,11 Sep 2022 00:06:37.482,11 Sep 2022 00:14:27.472,469.991
479,11 Sep 2022 01:39:18.744,11 Sep 2022 01:50:52.999,694.254
480,11 Sep 2022 03:13:36.846,11 Sep 2022 03:23:18.496,581.650
481,11 Sep 2022 10:50:54.672,11 Sep 2022 10:59:02.541,487.868
482,11 Sep 2022 12:22:14.560,11 Sep 2022 12:33:44.567,690.007
483,11 Sep 2022 13:57:16.393,11 Sep 2022 14:07:05.754,589.361
484,11 Sep 2022 23:48:44.681,11 Sep 2022 23:54:17.253,332.572
485,12 Sep 2022 01:20:38.444,12 Sep 2022 01:32:01.060,682.617
486,12 Sep 2022 02:54:42.019,12 Sep 2022 03:05:09.050,627.031
487,12 Sep 2022 04:30:52.257,12 Sep 2022 04:33:49.364,177.107
488,12 Sep 2022 10:33:13.279,12 Sep 2022 10:39:53.753,400.474
489,12 Sep 2022 12:03:43.641,12 Sep 2022 12:14:57.119,673.479
490,12 Sep 2022 13:37:58.123,12 Sep 2022 13:48:37.086,638.963
491,13 Sep 2022 01:02:01.838,13 Sep 2022 01:12:59.729,657.891
492,13 Sep 2022 02:35:50.379,13 Sep 2022 02:46:50.805,660.425
493,13 Sep 2022 04:11:08.926,13 Sep 2022 04:16:51.140,342.214
494,13 Sep 2022 10:15:52.656,13 Sep 2022 10:20:29.868,277.212
495,13 Sep 2022 11:45:20.980,13 Sep 2022 11:56:06.972,645.993
496,13 Sep 2022 13:18:51.417,13 Sep 2022 13:30:02.803,671.386
497,13 Sep 2022 14:57:39.056,13 Sep 2022 15:01:09.488,210.432
498,14 Sep 2022 00:43:29.987,14 Sep 2022 00:53:47.796,617.809
499,14 Sep 2022 02:17:01.523,14 Sep 2022 02:28:24.203,682.679
500,14 Sep 2022 03:51:53.888,14 Sep 2022 03:59:18.974,445.086
501,14 Sep 2022 11:27:06.838,14 Sep 2022 11:37:13.891,607.053
502,14 Sep 2022 12:59:54.659,14 Sep 2022 13:11:24.341,689.682
503,14 Sep 2022 14:36:57.450,14 Sep 2022 14:43:44.344,406.894
504,15 Sep 2022 00:25:04.808,15 Sep 2022 00:34:23.119,558.311
505,15 Sep 2022 01:58:15.337,15 Sep 2022 02:09:49.386,694.049
506,15 Sep 2022 03:32:49.110,15 Sep 2022 03:41:30.866,521.756
507,15 Sep 2022 11:09:01.833,15 Sep 2022 11:18:17.290,555.457
508,15 Sep 2022 12:41:06.917,15 Sep 2022 12:52:42.522,695.605
509,15 Sep 2022 14:17:03.100,15 Sep 2022 14:25:38.925,515.825
510,16 Sep 2022 00:06:50.237,16 Sep 2022 00:14:41.487,471.249
511,16 Sep 2022 01:39:31.918,16 Sep 2022 01:51:06.237,694.320
512,16 Sep 2022 03:13:50.194,16 Sep 2022 03:23:31.228,581.033
513,16 Sep 2022 10:51:07.213,16 Sep 2022 10:59:15.980,488.767
514,16 Sep 2022 12:22:27.651,16 Sep 2022 12:33:57.791,690.140
515,16 Sep 2022 13:57:30.077,16 Sep 2022 14:07:18.724,588.647
516,16 Sep 2022 23:48:57.036,16 Sep 2022 23:54:31.750,334.715
517,17 Sep 2022 01:20:51.577,17 Sep 2022 01:32:14.405,682.828
518,17 Sep 2022 02:54:55.326,17 Sep 2022 03:05:21.890,626.564
519,17 Sep 2022 04:31:06.636,17 Sep 2022 04:34:00.792,174.156
520,17 Sep 2022 10:33:25.637,17 Sep 2022 10:40:07.308,401.671
521,17 Sep 2022 12:03:56.635,17 Sep 2022 12:15:10.373,673.739
522,17 Sep 2022 13:38:11.655,17 Sep 2022 13:48:50.138,638.483
523,18 Sep 2022 01:02:14.923,18 Sep 2022 01:13:13.192,658.269
524,18 Sep 2022 02:36:03.651,18 Sep 2022 02:47:03.746,660.095
525,18 Sep 2022 04:11:22.591,18 Sep 2022 04:17:03.351,340.760
526,18 Sep 2022 10:16:04.664,18 Sep 2022 10:20:43.706,279.041
527,18 Sep 2022 11:45:33.875,18 Sep 2022 11:56:20.256,646.381
528,18 Sep 2022 13:19:04.825,18 Sep 2022 13:30:15.911,671.086
529,18 Sep 2022 14:57:54.384,18 Sep 2022 15:01:21.058,206.675
530,19 Sep 2022 00:43:43.007,19 Sep 2022 00:54:01.394,618.387
531,19 Sep 2022 02:17:14.763,19 Sep 2022 02:28:37.242,682.479
532,19 Sep 2022 03:52:07.379,19 Sep 2022 03:59:31.426,444.047
533,19 Sep 2022 11:27:19.629,19 Sep 2022 11:37:27.215,607.587
534,19 Sep 2022 13:00:07.954,19 Sep 2022 13:11:37.493,689.539
535,19 Sep 2022 14:37:11.666,19 Sep 2022 14:43:56.939,405.273
536,20 Sep 2022 00:25:17.732,20 Sep 2022 00:34:36.887,559.155
537,20 Sep 2022 01:58:28.545,20 Sep 2022 02:10:02.523,693.979
538,20 Sep 2022 03:33:02.514,20 Sep 2022 03:41:43.473,520.959
539,20 Sep 2022 11:09:14.511,20 Sep 2022 11:18:30.662,556.152
540,20 Sep 2022 12:41:20.109,20 Sep 2022 12:52:55.707,695.598
541,20 Sep 2022 14:17:16.987,20 Sep 2022 14:25:51.770,514.783
542,21 Sep 2022 00:07:02.998,21 Sep 2022 00:14:55.497,472.499
543,21 Sep 2022 01:39:45.092,21 Sep 2022 01:51:19.475,694.383
544,21 Sep 2022 03:14:03.543,21 Sep 2022 03:23:43.959,580.415
545,21 Sep 2022 10:51:19.756,21 Sep 2022 10:59:29.420,489.663
546,21 Sep 2022 12:22:40.745,21 Sep 2022 12:34:11.015,690.270
547,21 Sep 2022 13:57:43.763,21 Sep 2022 14:07:31.696,587.933
548,21 Sep 2022 23:49:09.399,21 Sep 2022 23:54:46.239,336.840
549,22 Sep 2022 01:21:04.712,22 Sep 2022 01:32:27.754,683.042
550,22 Sep 2022 02:55:08.634,22 Sep 2022 03:05:34.730,626.096
551,22 Sep 2022 04:31:21.037,22 Sep 2022 04:34:12.200,171.163
552,22 Sep 2022 10:33:38.003,22 Sep 2022 10:40:20.860,402.857
553,22 Sep 2022 12:04:09.635,22 Sep 2022 12:15:23.628,673.993
554,22 Sep 2022 13:38:25.189,22 Sep 2022 13:49:03.187,637.998
555,23 Sep 2022 01:02:28.009,23 Sep 2022 01:13:26.653,658.644
556,23 Sep 2022 02:36:16.925,23 Sep 2022 02:47:16.688,659.764
557,23 Sep 2022 04:11:36.262,23 Sep 2022 04:17:15.559,339.297
558,23 Sep 2022 10:16:16.681,23 Sep 2022 10:20:57.538,280.857
559,23 Sep 2022 11:45:46.769,23 Sep 2022 11:56:33.544,646.775
560,23 Sep 2022 13:19:18.232,23 Sep 2022 13:30:29.021,670.789
561,23 Sep 2022 14:58:09.751,23 Sep 2022 15:01:32.594,202.843
562,24 Sep 2022 00:43:56.028,24 Sep 2022 00:54:14.992,618.963
563,24 Sep 2022 02:17:28.007,24 Sep 2022 02:28:50.281,682.274
564,24 Sep 2022 03:52:20.874,24 Sep 2022 03:59:43.877,443.003
565,24 Sep 2022 11:27:32.423,24 Sep 2022 11:37:40.540,608.117
566,24 Sep 2022 13:00:21.251,24 Sep 2022 13:11:50.647,689.396
567,24 Sep 2022 14:37:25.889,24 Sep 2022 14:44:09.533,403.644
568,25 Sep 2022 00:25:30.657,25 Sep 2022 00:34:50.654,559.997
569,25 Sep 2022 01:58:41.754,25 Sep 2022 02:10:15.660,693.906
570,25 Sep 2022 03:33:15.922,25 Sep 2022 03:41:56.079,520.157
571,25 Sep 2022 11:09:27.191,25 Sep 2022 11:18:44.034,556.843
572,25 Sep 2022 12:41:33.303,25 Sep 2022 12:53:08.898,695.595
573,25 Sep 2022 14:17:30.878,25 Sep 2022 14:26:04.616,513.738
574,26 Sep 2022 00:07:15.758,26 Sep 2022 00:15:09.504,473.746
575,26 Sep 2022 01:39:58.267,26 Sep 2022 01:51:32.712,694.446
576,26 Sep 2022 03:14:16.893,26 Sep 2022 03:23:56.689,579.796
577,26 Sep 2022 10:51:32.303,26 Sep 2022 10:59:42.857,490.554
578,26 Sep 2022 12:22:53.840,26 Sep 2022 12:34:24.239,690.399
579,26 Sep 2022 13:57:57.451,26 Sep 2022 14:07:44.669,587.218
580,26 Sep 2022 23:49:21.768,26 Sep 2022 23:55:00.722,338.954
581,27 Sep 2022 01:21:17.847,27 Sep 2022 01:32:41.098,683.250
582,27 Sep 2022 02:55:21.943,27 Sep 2022 03:05:47.569,625.625
583,27 Sep 2022 04:31:35.478,27 Sep 2022 04:34:23.571,168.093
584,27 Sep 2022 10:33:50.370,27 Sep 2022 10:40:34.410,404.041
585,27 Sep 2022 12:04:22.633,27 Sep 2022 12:15:36.882,674.249
586,27 Sep 2022 13:38:38.725,27 Sep 2022 13:49:16.240,637.515
587,28 Sep 2022 01:02:41.095,28 Sep 2022 01:13:40.113,659.019
588,28 Sep 2022 02:36:30.198,28 Sep 2022 02:47:29.628,659.430
589,28 Sep 2022 04:11:49.939,28 Sep 2022 04:17:27.760,337.821
590,28 Sep 2022 10:16:28.708,28 Sep 2022 10:21:11.359,282.651
591,28 Sep 2022 11:45:59.668,28 Sep 2022 11:56:46.830,647.162
592,28 Sep 2022 13:19:31.642,28 Sep 2022 13:30:42.130,670.488
593,28 Sep 2022 14:58:25.151,28 Sep 2022 15:01:44.096,198.945
594,29 Sep 2022 00:44:09.048,29 Sep 2022 00:54:28.587,619.539
595,29 Sep 2022 02:17:41.249,29 Sep 2022 02:29:03.318,682.069
596,29 Sep 2022 03:52:34.373,29 Sep 2022 03:59:56.323,441.951
597,29 Sep 2022 11:27:45.218,29 Sep 2022 11:37:53.863,608.645
598,29 Sep 2022 13:00:34.549,29 Sep 2022 13:12:03.800,689.251
599,29 Sep 2022 14:37:40.115,29 Sep 2022 14:44:22.124,402.010
600,30 Sep 2022 00:25:43.581,30 Sep 2022 00:35:04.418,560.837
601,30 Sep 2022 01:58:54.963,30 Sep 2022 02:10:28.795,693.832
602,30 Sep 2022 03:33:29.331,30 Sep 2022 03:42:08.682,519.351
603,30 Sep 2022 11:09:39.873,30 Sep 2022 11:18:57.402,557.530
604,30 Sep 2022 12:41:46.497,30 Sep 2022 12:53:22.087,695.590
605,30 Sep 2022 14:17:44.770,30 Sep 2022 14:26:17.460,512.691
606,1 Oct 2022 00:07:28.518,1 Oct 2022 00:15:23.509,474.991
607,1 Oct 2022 01:40:11.441,1 Oct 2022 01:51:45.947,694.506
608,1 Oct 2022 03:14:30.244,1 Oct 2022 03:24:09.415,579.171
609,1 Oct 2022 10:51:44.851,1 Oct 2022 10:59:56.291,491.440
610,1 Oct 2022 12:23:06.935,1 Oct 2022 12:34:37.460,690.525
611,1 Oct 2022 13:58:11.139,1 Oct 2022 14:07:57.642,586.503
612,1 Oct 2022 23:49:34.143,1 Oct 2022 23:55:15.194,341.051
613,2 Oct 2022 01:21:30.981,2 Oct 2022 01:32:54.439,683.457
614,2 Oct 2022 02:55:35.251,2 Oct 2022 03:06:00.404,625.153
615,2 Oct 2022 04:31:49.948,2 Oct 2022 04:34:34.909,164.961
616,2 Oct 2022 10:34:02.738,2 Oct 2022 10:40:47.957,405.218
617,2 Oct 2022 12:04:35.631,2 Oct 2022 12:15:50.134,674.503
618,2 Oct 2022 13:38:52.261,2 Oct 2022 13:49:29.291,637.029
619,3 Oct 2022 01:02:54.180,3 Oct 2022 01:13:53.571,659.391
620,3 Oct 2022 02:36:43.471,3 Oct 2022 02:47:42.565,659.094
621,3 Oct 2022 04:12:03.618,3 Oct 2022 04:17:39.955,336.337
622,3 Oct 2022 10:16:40.741,3 Oct 2022 10:21:25.173,284.432
623,3 Oct 2022 11:46:12.567,3 Oct 2022 11:57:00.114,647.548
624,3 Oct 2022 13:19:45.052,3 Oct 2022 13:30:55.237,670.185
625,3 Oct 2022 14:58:40.595,3 Oct 2022 15:01:55.550,194.955
626,4 Oct 2022 00:44:22.069,4 Oct 2022 00:54:42.180,620.112
627,4 Oct 2022 02:17:54.485,4 Oct 2022 02:29:16.354,681.868
628,4 Oct 2022 03:52:47.871,4 Oct 2022 04:00:08.767,440.896
629,4 Oct 2022 11:27:58.014,4 Oct 2022 11:38:07.184,609.170
630,4 Oct 2022 13:00:47.847,4 Oct 2022 13:12:16.951,689.105
631,4 Oct 2022 14:37:54.346,4 Oct 2022 14:44:34.710,400.364
632,5 Oct 2022 00:25:56.507,5 Oct 2022 00:35:18.180,561.673
633,5 Oct 2022 01:59:08.172,5 Oct 2022 02:10:41.929,693.757
634,5 Oct 2022 03:33:42.740,5 Oct 2022 03:42:21.283,518.542
635,5 Oct 2022 11:09:52.556,5 Oct 2022 11:19:10.771,558.215
636,5 Oct 2022 12:41:59.692,5 Oct 2022 12:53:35.276,695.584
637,5 Oct 2022 14:17:58.665,5 Oct 2022 14:26:30.302,511.638
638,6 Oct 2022 00:07:41.283,6 Oct 2022 00:15:37.511,476.228
639,6 Oct 2022 01:40:24.616,6 Oct 2022 01:51:59.181,694.566
640,6 Oct 2022 03:14:43.596,6 Oct 2022 03:24:22.141,578.545

"Access","Start Time (UTCG)","Stop Time (UTCG)","Duration (sec)"
1,28 Jun 2022 11:22:32.308,28 Jun 2022 11:33:39.370,667.062
2,28 Jun 2022 12:58:12.684,28 Jun 2022 13:05:27.578,434.894
3,28 Jun 2022 23:05:57.546,28 Jun 2022 23:15:06.414,548.868
4,29 Jun 2022 00:38:56.060,29 Jun 2022 00:49:25.203,629.144
5,29 Jun 2022 11:04:19.003,29 Jun 2022 11:14:37.200,618.197
6,29 Jun 2022 12:38:22.117,29 Jun 2022 12:47:48.845,566.728
7,29 Jun 2022 22:48:26.322,29 Jun 2022 22:55:07.992,401.670
8,30 Jun 2022 00:19:56.345,30 Jun 2022 00:31:08.795,672.449
9,30 Jun 2022 10:46:26.731,30 Jun 2022 10:55:18.008,531.277
10,30 Jun 2022 12:19:01.572,30 Jun 2022 12:29:42.231,640.659
11,1 Jul 2022 00:01:09.343,1 Jul 2022 00:12:36.258,686.915
12,1 Jul 2022 10:29:09.041,1 Jul 2022 10:35:28.888,379.847
13,1 Jul 2022 12:00:00.475,1 Jul 2022 12:11:18.570,678.095
14,1 Jul 2022 23:42:34.492,1 Jul 2022 23:53:48.580,674.089
15,2 Jul 2022 01:18:07.822,2 Jul 2022 01:24:59.468,411.646
16,2 Jul 2022 11:41:15.289,2 Jul 2022 11:52:41.698,686.408
17,2 Jul 2022 13:20:04.856,2 Jul 2022 13:21:33.083,88.227
18,2 Jul 2022 23:24:13.249,2 Jul 2022 23:34:44.654,631.404
19,3 Jul 2022 00:58:25.462,3 Jul 2022 01:07:34.212,548.751
20,3 Jul 2022 11:22:45.260,3 Jul 2022 11:33:52.716,667.457
21,3 Jul 2022 12:58:26.962,3 Jul 2022 13:05:39.728,432.766
22,3 Jul 2022 23:06:10.126,3 Jul 2022 23:15:20.257,550.131
23,4 Jul 2022 00:39:09.538,4 Jul 2022 00:49:37.974,628.437
24,4 Jul 2022 11:04:31.740,4 Jul 2022 11:14:50.713,618.973
25,4 Jul 2022 12:38:35.908,4 Jul 2022 12:48:01.468,565.560
26,4 Jul 2022 22:48:38.350,4 Jul 2022 22:55:22.415,404.065
27,5 Jul 2022 00:20:09.659,5 Jul 2022 00:31:21.773,672.113
28,5 Jul 2022 10:46:39.164,5 Jul 2022 10:55:31.769,532.605
29,5 Jul 2022 12:19:15.088,5 Jul 2022 12:29:55.103,640.015
30,6 Jul 2022 00:01:22.515,6 Jul 2022 00:12:49.417,686.902
31,6 Jul 2022 10:29:20.878,6 Jul 2022 10:35:43.186,382.308
32,6 Jul 2022 12:00:13.787,6 Jul 2022 12:11:31.615,677.828
33,6 Jul 2022 23:42:47.514,6 Jul 2022 23:54:01.922,674.407
34,7 Jul 2022 01:18:21.982,7 Jul 2022 01:25:11.445,409.463
35,7 Jul 2022 11:41:28.421,7 Jul 2022 11:52:54.890,686.469
36,7 Jul 2022 13:20:25.656,7 Jul 2022 13:21:38.738,73.082
37,7 Jul 2022 23:24:26.094,7 Jul 2022 23:34:58.204,632.110
38,8 Jul 2022 00:58:39.168,8 Jul 2022 01:07:46.700,547.532
39,8 Jul 2022 11:22:58.207,8 Jul 2022 11:34:06.055,667.847
40,8 Jul 2022 12:58:41.252,8 Jul 2022 13:05:51.872,430.620
41,8 Jul 2022 23:06:22.708,8 Jul 2022 23:15:34.097,551.388
42,9 Jul 2022 00:39:23.016,9 Jul 2022 00:49:50.741,627.725
43,9 Jul 2022 11:04:44.473,9 Jul 2022 11:15:04.222,619.749
44,9 Jul 2022 12:38:49.698,9 Jul 2022 12:48:14.089,564.390
45,9 Jul 2022 22:48:50.388,9 Jul 2022 22:55:36.824,406.435
46,10 Jul 2022 00:20:22.975,10 Jul 2022 00:31:34.747,671.772
47,10 Jul 2022 10:46:51.600,10 Jul 2022 10:55:45.525,533.925
48,10 Jul 2022 12:19:28.605,10 Jul 2022 12:30:07.973,639.369
49,11 Jul 2022 00:01:35.687,11 Jul 2022 00:13:02.573,686.885
50,11 Jul 2022 10:29:32.727,11 Jul 2022 10:35:57.472,384.746
51,11 Jul 2022 12:00:27.101,11 Jul 2022 12:11:44.658,677.557
52,11 Jul 2022 23:43:00.540,11 Jul 2022 23:54:15.260,674.720
53,12 Jul 2022 01:18:36.148,12 Jul 2022 01:25:23.412,407.264
54,12 Jul 2022 11:41:41.555,12 Jul 2022 11:53:08.080,686.526
55,12 Jul 2022 13:20:48.537,12 Jul 2022 13:21:42.309,53.772
56,12 Jul 2022 23:24:38.942,12 Jul 2022 23:35:11.751,632.809
57,13 Jul 2022 00:58:52.878,13 Jul 2022 01:07:59.184,546.306
58,13 Jul 2022 11:23:11.158,13 Jul 2022 11:34:19.391,668.234
59,13 Jul 2022 12:58:55.551,13 Jul 2022 13:06:04.006,428.455
60,13 Jul 2022 23:06:35.296,13 Jul 2022 23:15:47.933,552.637
61,14 Jul 2022 00:39:36.497,14 Jul 2022 00:50:03.505,627.008
62,14 Jul 2022 11:04:57.209,14 Jul 2022 11:15:17.729,620.520
63,14 Jul 2022 12:39:03.493,14 Jul 2022 12:48:26.706,563.213
64,14 Jul 2022 22:49:02.438,14 Jul 2022 22:55:51.223,408.784
65,15 Jul 2022 00:20:36.293,15 Jul 2022 00:31:47.719,671.426
66,15 Jul 2022 10:47:04.041,15 Jul 2022 10:55:59.278,535.237
67,15 Jul 2022 12:19:42.125,15 Jul 2022 12:30:20.840,638.714
68,16 Jul 2022 00:01:48.862,16 Jul 2022 00:13:15.727,686.865
69,16 Jul 2022 10:29:44.587,16 Jul 2022 10:36:11.748,387.161
70,16 Jul 2022 12:00:40.418,16 Jul 2022 12:11:57.699,677.281
71,16 Jul 2022 23:43:13.567,16 Jul 2022 23:54:28.596,675.029
72,17 Jul 2022 01:18:50.325,17 Jul 2022 01:25:35.369,405.044
73,17 Jul 2022 11:41:54.691,17 Jul 2022 11:53:21.270,686.579
74,17 Jul 2022 13:21:18.217,17 Jul 2022 13:21:39.086,20.869
75,17 Jul 2022 23:24:51.791,17 Jul 2022 23:35:25.296,633.504
76,18 Jul 2022 00:59:06.591,18 Jul 2022 01:08:11.663,545.072
77,18 Jul 2022 11:23:24.110,18 Jul 2022 11:34:32.726,668.616
78,18 Jul 2022 12:59:09.859,18 Jul 2022 13:06:16.132,426.273
79,18 Jul 2022 23:06:47.886,18 Jul 2022 23:16:01.764,553.878
80,19 Jul 2022 00:39:49.979,19 Jul 2022 00:50:16.266,626.287
81,19 Jul 2022 11:05:09.948,19 Jul 2022 11:15:31.233,621.285
82,19 Jul 2022 12:39:17.290,19 Jul 2022 12:48:39.319,562.029
83,19 Jul 2022 22:49:14.497,19 Jul 2022 22:56:05.609,411.112
84,20 Jul 2022 00:20:49.611,20 Jul 2022 00:32:00.688,671.076
85,20 Jul 2022 10:47:16.486,20 Jul 2022 10:56:13.025,536.540
86,20 Jul 2022 12:19:55.647,20 Jul 2022 12:30:33.702,638.056
87,21 Jul 2022 00:02:02.037,21 Jul 2022 00:13:28.877,686.841
88,21 Jul 2022 10:29:56.458,21 Jul 2022 10:36:26.010,389.552
89,21 Jul 2022 12:00:53.734,21 Jul 2022 12:12:10.736,677.002
90,21 Jul 2022 23:43:26.594,21 Jul 2022 23:54:41.928,675.333
91,22 Jul 2022 01:19:04.508,22 Jul 2022 01:25:47.314,402.806
92,22 Jul 2022 11:42:07.826,22 Jul 2022 11:53:34.454,686.628
93,22 Jul 2022 23:25:04.641,22 Jul 2022 23:35:38.835,634.194
94,23 Jul 2022 00:59:20.306,23 Jul 2022 01:08:24.136,543.830
95,23 Jul 2022 11:23:37.062,23 Jul 2022 11:34:46.056,668.993
96,23 Jul 2022 12:59:24.175,23 Jul 2022 13:06:28.246,424.072
97,23 Jul 2022 23:07:00.478,23 Jul 2022 23:16:15.588,555.110
98,24 Jul 2022 00:40:03.462,24 Jul 2022 00:50:29.022,625.560
99,24 Jul 2022 11:05:22.687,24 Jul 2022 11:15:44.732,622.045
100,24 Jul 2022 12:39:31.089,24 Jul 2022 12:48:51.926,560.837
101,24 Jul 2022 22:49:26.565,24 Jul 2022 22:56:19.982,413.417
102,25 Jul 2022 00:21:02.930,25 Jul 2022 00:32:13.653,670.723
103,25 Jul 2022 10:47:28.934,25 Jul 2022 10:56:26.767,537.834
104,25 Jul 2022 12:20:09.169,25 Jul 2022 12:30:46.561,637.392
105,26 Jul 2022 00:02:15.212,26 Jul 2022 00:13:42.025,686.813
106,26 Jul 2022 10:30:08.340,26 Jul 2022 10:36:40.261,391.921
107,26 Jul 2022 12:01:07.052,26 Jul 2022 12:12:23.771,676.719
108,26 Jul 2022 23:43:39.623,26 Jul 2022 23:54:55.257,675.634
109,27 Jul 2022 01:19:18.700,27 Jul 2022 01:25:59.250,400.550
110,27 Jul 2022 11:42:20.964,27 Jul 2022 11:53:47.638,686.674
111,27 Jul 2022 23:25:17.494,27 Jul 2022 23:35:52.372,634.878
112,28 Jul 2022 00:59:34.024,28 Jul 2022 01:08:36.605,542.582
113,28 Jul 2022 11:23:50.017,28 Jul 2022 11:34:59.385,669.367
114,28 Jul 2022 12:59:38.500,28 Jul 2022 13:06:40.352,421.851
115,28 Jul 2022 23:07:13.075,28 Jul 2022 23:16:29.406,556.331
116,29 Jul 2022 00:40:16.947,29 Jul 2022 00:50:41.776,624.829
117,29 Jul 2022 11:05:35.431,29 Jul 2022 11:15:58.230,622.799
118,29 Jul 2022 12:39:44.893,29 Jul 2022 12:49:04.531,559.637
119,29 Jul 2022 22:49:38.643,29 Jul 2022 22:56:34.346,415.703
120,30 Jul 2022 00:21:16.251,30 Jul 2022 00:32:26.616,670.365
121,30 Jul 2022 10:47:41.386,30 Jul 2022 10:56:40.506,539.120
122,30 Jul 2022 12:20:22.695,30 Jul 2022 12:30:59.418,636.723
123,31 Jul 2022 00:02:28.390,31 Jul 2022 00:13:55.171,686.781
124,31 Jul 2022 10:30:20.233,31 Jul 2022 10:36:54.501,394.268
125,31 Jul 2022 12:01:20.373,31 Jul 2022 12:12:36.805,676.432
126,31 Jul 2022 23:43:52.654,31 Jul 2022 23:55:08.584,675.930
127,1 Aug 2022 01:19:32.902,1 Aug 2022 01:26:11.174,398.272
128,1 Aug 2022 11:42:34.104,1 Aug 2022 11:54:00.819,686.715
129,1 Aug 2022 23:25:30.347,1 Aug 2022 23:36:05.905,635.557
130,2 Aug 2022 00:59:47.746,2 Aug 2022 01:08:49.070,541.324
131,2 Aug 2022 11:24:02.971,2 Aug 2022 11:35:12.711,669.740
132,2 Aug 2022 12:59:52.840,2 Aug 2022 13:06:52.452,419.613
133,2 Aug 2022 23:07:25.677,2 Aug 2022 23:16:43.226,557.548
134,3 Aug 2022 00:40:30.434,3 Aug 2022 00:50:54.526,624.092
135,3 Aug 2022 11:05:48.175,3 Aug 2022 11:16:11.723,623.548
136,3 Aug 2022 12:39:58.696,3 Aug 2022 12:49:17.131,558.435
137,3 Aug 2022 22:49:50.730,3 Aug 2022 22:56:48.693,417.963
138,4 Aug 2022 00:21:29.572,4 Aug 2022 00:32:39.576,670.004
139,4 Aug 2022 10:47:53.842,4 Aug 2022 10:56:54.238,540.397
140,4 Aug 2022 12:20:36.222,4 Aug 2022 12:31:12.272,636.049
141,5 Aug 2022 00:02:41.567,5 Aug 2022 00:14:08.312,686.745
142,5 Aug 2022 10:30:32.135,5 Aug 2022 10:37:08.728,396.593
143,5 Aug 2022 12:01:33.694,5 Aug 2022 12:12:49.835,676.141
144,5 Aug 2022 23:44:05.684,5 Aug 2022 23:55:21.906,676.222
145,6 Aug 2022 01:19:47.112,6 Aug 2022 01:26:23.087,395.975
146,6 Aug 2022 11:42:47.243,6 Aug 2022 11:54:13.996,686.753
147,6 Aug 2022 23:25:43.202,6 Aug 2022 23:36:19.430,636.228
148,7 Aug 2022 01:00:01.469,7 Aug 2022 01:09:01.528,540.060
149,7 Aug 2022 11:24:15.928,7 Aug 2022 11:35:26.034,670.105
150,7 Aug 2022 13:00:07.182,7 Aug 2022 13:07:04.537,417.355
151,7 Aug 2022 23:07:38.279,7 Aug 2022 23:16:57.035,558.756
152,8 Aug 2022 00:40:43.921,8 Aug 2022 00:51:07.272,623.351
153,8 Aug 2022 11:06:00.922,8 Aug 2022 11:16:25.210,624.288
154,8 Aug 2022 12:40:12.505,8 Aug 2022 12:49:29.725,557.220
155,8 Aug 2022 22:50:02.826,8 Aug 2022 22:57:03.033,420.207
156,9 Aug 2022 00:21:42.891,9 Aug 2022 00:32:52.532,669.641
157,9 Aug 2022 10:48:06.301,9 Aug 2022 10:57:07.967,541.666
158,9 Aug 2022 12:20:49.751,9 Aug 2022 12:31:25.122,635.371
159,10 Aug 2022 00:02:54.746,10 Aug 2022 00:14:21.452,686.706
160,10 Aug 2022 10:30:44.048,10 Aug 2022 10:37:22.946,398.897
161,10 Aug 2022 12:01:47.017,10 Aug 2022 12:13:02.862,675.845
162,10 Aug 2022 23:44:18.716,10 Aug 2022 23:55:35.227,676.510
163,11 Aug 2022 01:20:01.331,11 Aug 2022 01:26:34.990,393.659
164,11 Aug 2022 11:43:00.386,11 Aug 2022 11:54:27.173,686.787
165,11 Aug 2022 23:25:56.060,11 Aug 2022 23:36:32.957,636.897
166,12 Aug 2022 01:00:15.196,12 Aug 2022 01:09:13.984,538.787
167,12 Aug 2022 11:24:28.889,12 Aug 2022 11:35:39.351,670.463
168,12 Aug 2022 13:00:21.536,12 Aug 2022 13:07:16.612,415.076
169,12 Aug 2022 23:07:50.886,12 Aug 2022 23:17:10.837,559.951
170,13 Aug 2022 00:40:57.412,13 Aug 2022 00:51:20.016,622.605
171,13 Aug 2022 11:06:13.673,13 Aug 2022 11:16:38.699,625.026
172,13 Aug 2022 12:40:26.320,13 Aug 2022 12:49:42.318,555.997
173,13 Aug 2022 22:50:14.932,13 Aug 2022 22:57:17.364,422.432
174,14 Aug 2022 00:21:56.216,14 Aug 2022 00:33:05.487,669.271
175,14 Aug 2022 10:48:18.765,14 Aug 2022 10:57:21.692,542.927
176,14 Aug 2022 12:21:03.284,14 Aug 2022 12:31:37.970,634.687
177,15 Aug 2022 00:03:07.926,15 Aug 2022 00:14:34.589,686.663
178,15 Aug 2022 10:30:55.972,15 Aug 2022 10:37:37.152,401.180
179,15 Aug 2022 12:02:00.343,15 Aug 2022 12:13:15.889,675.546
180,15 Aug 2022 23:44:31.750,15 Aug 2022 23:55:48.545,676.795
181,16 Aug 2022 01:20:15.562,16 Aug 2022 01:26:46.881,391.319
182,16 Aug 2022 11:43:13.530,16 Aug 2022 11:54:40.347,686.817
183,16 Aug 2022 23:26:08.919,16 Aug 2022 23:36:46.480,637.561
184,17 Aug 2022 01:00:28.923,17 Aug 2022 01:09:26.433,537.510
185,17 Aug 2022 11:24:41.850,17 Aug 2022 11:35:52.674,670.824
186,17 Aug 2022 13:00:35.898,17 Aug 2022 13:07:28.677,412.779
187,17 Aug 2022 23:08:03.493,17 Aug 2022 23:17:24.637,561.143
188,18 Aug 2022 00:41:10.903,18 Aug 2022 00:51:32.756,621.853
189,18 Aug 2022 11:06:26.424,18 Aug 2022 11:16:52.183,625.759
190,18 Aug 2022 12:40:40.137,18 Aug 2022 12:49:54.908,554.771
191,18 Aug 2022 22:50:27.045,18 Aug 2022 22:57:31.682,424.637
192,19 Aug 2022 00:22:09.540,19 Aug 2022 00:33:18.438,668.898
193,19 Aug 2022 10:48:31.232,19 Aug 2022 10:57:35.410,544.178
194,19 Aug 2022 12:21:16.816,19 Aug 2022 12:31:50.815,633.999
195,20 Aug 2022 00:03:21.106,20 Aug 2022 00:14:47.722,686.616
196,20 Aug 2022 10:31:07.905,20 Aug 2022 10:37:51.346,403.442
197,20 Aug 2022 12:02:13.668,20 Aug 2022 12:13:28.915,675.247
198,20 Aug 2022 23:44:44.784,20 Aug 2022 23:56:01.859,677.075
199,21 Aug 2022 01:20:29.800,21 Aug 2022 01:26:58.760,388.960
200,21 Aug 2022 11:43:26.674,21 Aug 2022 11:54:53.518,686.844
201,21 Aug 2022 23:26:21.778,21 Aug 2022 23:36:59.998,638.220
202,22 Aug 2022 01:00:42.656,22 Aug 2022 01:09:38.877,536.221
203,22 Aug 2022 11:24:54.812,22 Aug 2022 11:36:05.989,671.177
204,22 Aug 2022 13:00:50.270,22 Aug 2022 13:07:40.731,410.461
205,22 Aug 2022 23:08:16.105,22 Aug 2022 23:17:38.431,562.327
206,23 Aug 2022 00:41:24.395,23 Aug 2022 00:51:45.492,621.096
207,23 Aug 2022 11:06:39.178,23 Aug 2022 11:17:05.664,626.486
208,23 Aug 2022 12:40:53.958,23 Aug 2022 12:50:07.491,553.533
209,23 Aug 2022 22:50:39.168,23 Aug 2022 22:57:45.990,426.823
210,24 Aug 2022 00:22:22.866,24 Aug 2022 00:33:31.386,668.520
211,24 Aug 2022 10:48:43.703,24 Aug 2022 10:57:49.125,545.423
212,24 Aug 2022 12:21:30.352,24 Aug 2022 12:32:03.657,633.305
213,24 Aug 2022 22:35:10.698,24 Aug 2022 22:35:43.177,32.479
214,25 Aug 2022 00:03:34.288,25 Aug 2022 00:15:00.854,686.566
215,25 Aug 2022 10:31:19.848,25 Aug 2022 10:38:05.532,405.684
216,25 Aug 2022 12:02:26.996,25 Aug 2022 12:13:41.936,674.940
217,25 Aug 2022 23:44:57.820,25 Aug 2022 23:56:15.171,677.351
218,26 Aug 2022 01:20:44.051,26 Aug 2022 01:27:10.628,386.578
219,26 Aug 2022 11:43:39.821,26 Aug 2022 11:55:06.688,686.866
220,26 Aug 2022 23:26:34.641,26 Aug 2022 23:37:13.515,638.874
221,27 Aug 2022 01:00:56.394,27 Aug 2022 01:09:51.318,534.924
222,27 Aug 2022 11:25:07.778,27 Aug 2022 11:36:19.303,671.526
223,27 Aug 2022 13:01:04.654,27 Aug 2022 13:07:52.776,408.122
224,27 Aug 2022 23:08:28.720,27 Aug 2022 23:17:52.223,563.503
225,28 Aug 2022 00:41:37.892,28 Aug 2022 00:51:58.226,620.334
226,28 Aug 2022 11:06:51.935,28 Aug 2022 11:17:19.144,627.208
227,28 Aug 2022 12:41:07.784,28 Aug 2022 12:50:20.070,552.287
228,28 Aug 2022 22:50:51.299,28 Aug 2022 22:58:00.290,428.991
229,29 Aug 2022 00:22:36.195,29 Aug 2022 00:33:44.333,668.138
230,29 Aug 2022 10:48:56.178,29 Aug 2022 10:58:02.837,546.658
231,29 Aug 2022 12:21:43.891,29 Aug 2022 12:32:16.497,632.607
232,29 Aug 2022 22:35:10.586,29 Aug 2022 22:36:09.738,59.152
233,30 Aug 2022 00:03:47.472,30 Aug 2022 00:15:13.983,686.511
234,30 Aug 2022 10:31:31.801,30 Aug 2022 10:38:19.706,407.905
235,30 Aug 2022 12:02:40.327,30 Aug 2022 12:13:54.955,674.628
236,30 Aug 2022 23:45:10.857,30 Aug 2022 23:56:28.480,677.623
237,31 Aug 2022 01:20:58.312,31 Aug 2022 01:27:22.484,384.172
238,31 Aug 2022 11:43:52.970,31 Aug 2022 11:55:19.855,686.885
239,31 Aug 2022 23:26:47.505,31 Aug 2022 23:37:27.028,639.523
240,1 Sep 2022 01:01:10.135,1 Sep 2022 01:10:03.753,533.618
241,1 Sep 2022 11:25:20.744,1 Sep 2022 11:36:32.614,671.870
242,1 Sep 2022 13:01:19.047,1 Sep 2022 13:08:04.810,405.763
243,1 Sep 2022 23:08:41.337,1 Sep 2022 23:18:06.009,564.672
244,2 Sep 2022 00:41:51.389,2 Sep 2022 00:52:10.956,619.567
245,2 Sep 2022 11:07:04.694,2 Sep 2022 11:17:32.619,627.925
246,2 Sep 2022 12:41:21.612,2 Sep 2022 12:50:32.645,551.033
247,2 Sep 2022 22:51:03.437,2 Sep 2022 22:58:14.578,431.141
248,3 Sep 2022 00:22:49.523,3 Sep 2022 00:33:57.275,667.752
249,3 Sep 2022 10:49:08.656,3 Sep 2022 10:58:16.542,547.886
250,3 Sep 2022 12:21:57.430,3 Sep 2022 12:32:29.334,631.903
251,3 Sep 2022 22:35:14.866,3 Sep 2022 22:36:31.908,77.042
252,4 Sep 2022 00:04:00.656,4 Sep 2022 00:15:27.109,686.453
253,4 Sep 2022 10:31:43.763,4 Sep 2022 10:38:33.870,410.106
254,4 Sep 2022 12:02:53.658,4 Sep 2022 12:14:07.971,674.313
255,4 Sep 2022 23:45:23.895,4 Sep 2022 23:56:41.786,677.891
256,5 Sep 2022 01:21:12.582,5 Sep 2022 01:27:34.328,381.745
257,5 Sep 2022 11:44:06.119,5 Sep 2022 11:55:33.019,686.900
258,5 Sep 2022 23:27:00.370,5 Sep 2022 23:37:40.536,640.167
259,6 Sep 2022 01:01:23.879,6 Sep 2022 01:10:16.183,532.305
260,6 Sep 2022 11:25:33.712,6 Sep 2022 11:36:45.923,672.211
261,6 Sep 2022 13:01:33.450,6 Sep 2022 13:08:16.832,403.382
262,6 Sep 2022 23:08:53.957,6 Sep 2022 23:18:19.790,565.833
263,7 Sep 2022 00:42:04.887,7 Sep 2022 00:52:23.682,618.795
264,7 Sep 2022 11:07:17.455,7 Sep 2022 11:17:46.092,628.637
265,7 Sep 2022 12:41:35.444,7 Sep 2022 12:50:45.215,549.771
266,7 Sep 2022 22:51:15.585,7 Sep 2022 22:58:28.857,433.272
267,8 Sep 2022 00:23:02.854,8 Sep 2022 00:34:10.216,667.362
268,8 Sep 2022 10:49:21.139,8 Sep 2022 10:58:30.245,549.106
269,8 Sep 2022 12:22:10.974,8 Sep 2022 12:32:42.168,631.195
270,8 Sep 2022 22:35:20.883,8 Sep 2022 22:36:52.337,91.454
271,9 Sep 2022 00:04:13.842,9 Sep 2022 00:15:40.233,686.391
272,9 Sep 2022 10:31:55.736,9 Sep 2022 10:38:48.025,412.290
273,9 Sep 2022 12:03:06.992,9 Sep 2022 12:14:20.986,673.994
274,9 Sep 2022 23:45:36.935,9 Sep 2022 23:56:55.091,678.155
275,10 Sep 2022 01:21:26.866,10 Sep 2022 01:27:46.160,379.294
276,10 Sep 2022 11:44:19.272,10 Sep 2022 11:55:46.183,686.911
277,10 Sep 2022 23:27:13.238,10 Sep 2022 23:37:54.044,640.806
278,11 Sep 2022 01:01:37.628,11 Sep 2022 01:10:28.610,530.982
279,11 Sep 2022 11:25:46.684,11 Sep 2022 11:36:59.231,672.547
280,11 Sep 2022 13:01:47.862,11 Sep 2022 13:08:28.844,400.983
281,11 Sep 2022 23:09:06.581,11 Sep 2022 23:18:33.569,566.988
282,12 Sep 2022 00:42:18.390,12 Sep 2022 00:52:36.407,618.017
283,12 Sep 2022 11:07:30.219,12 Sep 2022 11:17:59.562,629.343
284,12 Sep 2022 12:41:49.282,12 Sep 2022 12:50:57.783,548.501
285,12 Sep 2022 22:51:27.741,12 Sep 2022 22:58:43.127,435.386
286,13 Sep 2022 00:23:16.186,13 Sep 2022 00:34:23.154,666.968
287,13 Sep 2022 10:49:33.631,13 Sep 2022 10:58:43.943,550.312
288,13 Sep 2022 12:22:24.519,13 Sep 2022 12:32:55.001,630.481
289,13 Sep 2022 22:35:27.905,13 Sep 2022 22:37:11.762,103.857
290,14 Sep 2022 00:04:27.029,14 Sep 2022 00:15:53.355,686.326
291,14 Sep 2022 10:32:07.717,14 Sep 2022 10:39:02.170,414.452
292,14 Sep 2022 12:03:20.327,14 Sep 2022 12:14:33.999,673.671
293,14 Sep 2022 23:45:49.976,14 Sep 2022 23:57:08.392,678.416
294,15 Sep 2022 01:21:41.160,15 Sep 2022 01:27:57.979,376.819
295,15 Sep 2022 10:16:44.885,15 Sep 2022 10:17:22.589,37.703
296,15 Sep 2022 11:44:32.425,15 Sep 2022 11:55:59.344,686.919
297,15 Sep 2022 23:27:26.106,15 Sep 2022 23:38:07.547,641.441
298,16 Sep 2022 01:01:51.380,16 Sep 2022 01:10:41.030,529.650
299,16 Sep 2022 11:25:59.655,16 Sep 2022 11:37:12.535,672.879
300,16 Sep 2022 13:02:02.287,16 Sep 2022 13:08:40.845,398.559
301,16 Sep 2022 23:09:19.207,16 Sep 2022 23:18:47.341,568.134
302,17 Sep 2022 00:42:31.893,17 Sep 2022 00:52:49.127,617.234
303,17 Sep 2022 11:07:42.985,17 Sep 2022 11:18:13.029,630.044
304,17 Sep 2022 12:42:03.122,17 Sep 2022 12:51:10.345,547.224
305,17 Sep 2022 22:51:39.903,17 Sep 2022 22:58:57.386,437.482
306,18 Sep 2022 00:23:29.520,18 Sep 2022 00:34:36.089,666.570
307,18 Sep 2022 10:49:46.120,18 Sep 2022 10:58:57.636,551.516
308,18 Sep 2022 12:22:38.067,18 Sep 2022 12:33:07.832,629.766
309,18 Sep 2022 22:35:35.608,18 Sep 2022 22:37:30.505,114.898
310,19 Sep 2022 00:04:40.217,19 Sep 2022 00:16:06.473,686.257
311,19 Sep 2022 10:32:19.708,19 Sep 2022 10:39:16.304,416.597
312,19 Sep 2022 12:03:33.665,19 Sep 2022 12:14:47.009,673.344
313,19 Sep 2022 23:46:03.019,19 Sep 2022 23:57:21.691,678.672
314,20 Sep 2022 01:21:55.466,20 Sep 2022 01:28:09.785,374.319
315,20 Sep 2022 10:16:46.437,20 Sep 2022 10:17:47.094,60.656
316,20 Sep 2022 11:44:45.580,20 Sep 2022 11:56:12.503,686.923
317,20 Sep 2022 23:27:38.978,20 Sep 2022 23:38:21.048,642.070
318,21 Sep 2022 01:02:05.136,21 Sep 2022 01:10:53.446,528.310
319,21 Sep 2022 11:26:12.630,21 Sep 2022 11:37:25.837,673.208
320,21 Sep 2022 13:02:16.724,21 Sep 2022 13:08:52.835,396.111
321,21 Sep 2022 23:09:31.837,21 Sep 2022 23:19:01.110,569.273
322,22 Sep 2022 00:42:45.399,22 Sep 2022 00:53:01.845,616.445
323,22 Sep 2022 11:07:55.754,22 Sep 2022 11:18:26.495,630.741
324,22 Sep 2022 12:42:16.967,22 Sep 2022 12:51:22.904,545.937
325,22 Sep 2022 22:51:52.075,22 Sep 2022 22:59:11.637,439.562
326,23 Sep 2022 00:23:42.856,23 Sep 2022 00:34:49.022,666.167
327,23 Sep 2022 10:49:58.614,23 Sep 2022 10:59:11.326,552.712
328,23 Sep 2022 12:22:51.618,23 Sep 2022 12:33:20.660,629.042
329,23 Sep 2022 22:35:43.809,23 Sep 2022 22:37:48.752,124.944
330,24 Sep 2022 00:04:53.408,24 Sep 2022 00:16:19.591,686.183
331,24 Sep 2022 10:32:31.708,24 Sep 2022 10:39:30.431,418.723
332,24 Sep 2022 12:03:47.005,24 Sep 2022 12:15:00.018,673.013
333,24 Sep 2022 23:46:16.064,24 Sep 2022 23:57:34.988,678.925
334,25 Sep 2022 01:22:09.785,25 Sep 2022 01:28:21.579,371.794
335,25 Sep 2022 10:16:51.290,25 Sep 2022 10:18:08.303,77.014
336,25 Sep 2022 11:44:58.739,25 Sep 2022 11:56:25.662,686.923
337,25 Sep 2022 23:27:51.851,25 Sep 2022 23:38:34.546,642.695
338,26 Sep 2022 01:02:18.898,26 Sep 2022 01:11:05.858,526.961
339,26 Sep 2022 11:26:25.607,26 Sep 2022 11:37:39.139,673.532
