Trabajo 1/MartinLara/Satellite-MartinLaraSAT-To-Place-KirunaGS_Access.csv

Access,Start Time (UTCG),Stop Time (UTCG),Duration (sec),,,,,MEAN ACCESS TIME,,585.5729263
1,56:33.3,05:28.5,535.108,,,,,,,
2,28:57.6,37:55.3,537.623,,,,,,,
3,00:58.0,11:09.9,611.966,,,,,,,
4,33:30.0,44:55.0,684.974,,,7,12,11,11,11
5,07:17.9,18:51.0,693.175,,,,,,,
6,42:53.6,52:41.7,588.08,,,,,,,
7,21:21.5,25:35.9,254.471,,,,,,,
8,50:54.9,53:02.4,127.488,,,,,,,
9,23:08.7,32:28.3,559.606,,,,,,,
10,56:56.6,08:22.8,686.204,,,,,,,
11,30:52.9,42:24.3,691.348,,,,,,,
12,04:40.6,15:05.0,624.427,,,,,,,
13,38:01.1,47:06.5,545.373,,,,,,,
14,10:34.8,19:24.5,529.686,,,,,,,
15,42:35.7,52:30.5,594.725,,,,,,,
16,14:57.3,26:11.2,673.938,,,,,,,
17,48:27.3,00:06.3,698.991,,,,,,,
18,23:38.8,33:59.7,620.921,,,,,,,
19,01:18.4,07:18.2,359.892,,,,,,,
20,04:29.6,13:02.5,512.904,,,,,,,
21,38:12.3,49:24.7,672.493,,,,,,,
22,12:08.5,23:46.1,697.588,,,,,,,
23,45:59.2,56:40.2,641.042,,,,,,,
24,19:26.9,28:45.3,558.349,,,,,,,
25,52:10.6,00:55.9,525.314,,,,,,,
26,24:14.3,33:52.4,578.01,,,,,,,
27,56:27.3,07:28.0,660.668,,,,,,,
28,29:40.8,41:21.6,700.753,,,,,,,
29,04:29.5,15:16.7,647.206,,,,,,,
30,41:31.9,48:48.8,436.84,,,,,,,
31,45:53.5,53:29.1,455.635,,,,,,,
32,19:28.4,30:22.0,653.623,,,,,,,
33,53:23.9,05:04.4,700.549,,,,,,,
34,27:16.9,38:13.4,656.523,,,,,,,
35,00:50.9,10:24.3,573.413,,,,,,,
36,33:44.6,42:29.3,524.766,,,,,,,
37,05:53.4,15:15.9,562.479,,,,,,,
38,37:59.9,48:45.5,645.618,,,,,,,
39,10:58.1,22:36.9,698.781,,,,,,,
40,45:25.4,56:33.0,667.629,,,,,,,
41,21:56.0,30:13.7,497.702,,,,,,,
42,27:22.0,33:46.0,384.009,,,,,,,
43,00:45.2,11:14.2,629.08,,,,,,,
44,34:39.1,46:19.0,699.894,,,,,,,
45,08:33.8,19:44.2,670.356,,,,,,,
46,42:13.2,52:03.1,589.869,,,,,,,
47,15:16.5,24:04.6,528.063,,,,,,,
48,47:32.3,56:41.1,548.845,,,,,,,
49,19:34.5,30:03.8,629.27,,,,,,,
50,52:19.0,03:52.4,693.447,,,,,,,
51,26:26.0,37:48.8,682.776,,,,,,,
52,02:28.2,11:35.3,547.166,,,,,,,
53,08:59.8,13:48.9,289.084,,,,,,,
54,42:02.9,52:01.1,598.195,,,,,,,
55,15:54.4,27:29.7,695.275,,,,,,,
56,49:50.2,01:12.3,682.072,,,,,,,
57,23:34.1,33:41.2,607.028,,,,,,,
58,56:46.4,05:41.4,535.022,,,,,,,
59,29:10.6,38:08.3,537.75,,,,,,,
60,01:10.9,11:23.1,612.179,,,,,,,
61,33:43.1,45:08.2,685.093,,,,,,,
62,07:31.2,19:04.3,693.078,,,,,,,
63,43:07.2,52:54.8,587.635,,,,,,,
64,21:35.8,25:48.7,252.877,,,,,,,
65,51:06.9,53:17.4,130.505,,,,,,,
66,23:21.9,32:42.0,560.095,,,,,,,
67,57:09.8,08:36.1,686.333,,,,,,,
68,31:06.1,42:37.4,691.255,,,,,,,
69,04:53.8,15:18.0,624.232,,,,,,,
70,38:14.2,47:19.4,545.246,,,,,,,
71,10:47.8,19:37.6,529.774,,,,,,,
72,42:48.7,52:43.6,594.938,,,,,,,
73,15:10.4,26:24.4,674.087,,,,,,,
74,48:40.6,00:19.5,698.945,,,,,,,
75,23:52.3,34:12.9,620.562,,,,,,,
76,01:32.4,07:31.2,358.82,,,,,,,
77,04:42.8,13:16.3,513.501,,,,,,,
78,38:25.5,49:38.1,672.68,,,,,,,
79,12:21.7,23:59.2,697.533,,,,,,,
80,46:12.4,56:53.2,640.856,,,,,,,
81,19:40.0,28:58.2,558.193,,,,,,,
82,52:23.6,01:08.9,525.357,,,,,,,
83,24:27.3,34:05.5,578.213,,,,,,,
84,56:40.4,07:41.2,660.842,,,,,,,
85,29:54.0,41:34.8,700.754,,,,,,,
86,04:43.0,15:29.9,646.923,,,,,,,
87,41:45.8,49:01.8,436.013,,,,,,,
88,46:06.6,53:42.9,456.371,,,,,,,
89,19:41.6,30:35.5,653.874,,,,,,,
90,53:37.1,05:17.6,700.534,,,,,,,
91,27:30.1,38:26.4,656.358,,,,,,,
92,01:04.0,10:37.3,573.234,,,,,,,
93,33:57.5,42:42.3,524.763,,,,,,,
94,06:06.3,15:29.0,562.665,,,,,,,
95,38:12.9,48:58.7,645.811,,,,,,,
96,11:11.3,22:50.1,698.826,,,,,,,
97,45:38.8,56:46.2,667.413,,,,,,,
98,22:09.8,30:26.8,497.036,,,,,,,
99,27:35.1,34:00.0,384.946,,,,,,,
100,00:58.4,11:27.8,629.4,,,,,,,
101,34:52.3,46:32.3,699.922,,,,,,,
102,08:47.0,19:57.2,670.207,,,,,,,
103,42:26.4,52:16.1,589.676,,,,,,,
104,15:29.5,24:17.6,528.015,,,,,,,
105,47:45.2,56:54.2,549.005,,,,,,,
106,19:47.5,30:17.0,629.477,,,,,,,
107,52:32.1,04:05.6,693.531,,,,,,,
108,26:39.4,38:02.0,682.622,,,,,,,
109,02:41.9,11:48.5,546.621,,,,,,,
110,09:12.7,14:03.1,290.388,,,,,,,
111,42:16.0,52:14.6,598.593,,,,,,,
112,16:07.6,27:43.0,695.352,,,,,,,
113,50:03.4,01:25.4,681.95,,,,,,,
114,23:47.3,33:54.1,606.831,,,,,,,
115,56:59.4,05:54.4,534.932,,,,,,,
116,29:23.5,38:21.4,537.877,,,,,,,
117,01:23.9,11:36.3,612.393,,,,,,,
118,33:56.2,45:21.4,685.212,,,,,,,
119,07:44.5,19:17.5,692.979,,,,,,,
120,43:20.8,53:08.0,587.19,,,,,,,
121,21:50.1,26:01.4,251.273,,,,,,,
122,51:19.0,53:32.5,133.45,,,,,,,
123,23:35.0,32:55.6,560.583,,,,,,,
124,57:23.0,08:49.5,686.463,,,,,,,
125,31:19.3,42:50.5,691.164,,,,,,,
126,05:06.9,15:31.0,624.037,,,,,,,
127,38:27.3,47:32.4,545.12,,,,,,,
128,11:00.8,19:50.6,529.862,,,,,,,
129,43:01.6,52:56.8,595.151,,,,,,,
130,15:23.4,26:37.6,674.236,,,,,,,
131,48:53.9,00:32.8,698.898,,,,,,,
132,24:05.9,34:26.1,620.202,,,,,,,
133,01:46.4,07:44.2,357.739,,,,,,,
134,04:55.9,13:30.0,514.091,,,,,,,
135,38:38.7,49:51.5,672.867,,,,,,,
136,12:34.9,24:12.4,697.478,,,,,,,
137,46:25.6,57:06.2,640.671,,,,,,,
138,19:53.1,29:11.2,558.038,,,,,,,
139,52:36.5,01:21.9,525.402,,,,,,,
140,24:40.2,34:18.6,578.418,,,,,,,
141,56:53.4,07:54.4,661.016,,,,,,,
142,30:07.3,41:48.0,700.755,,,,,,,
143,04:56.5,15:43.1,646.638,,,,,,,
144,41:59.7,49:14.9,435.181,,,,,,,
145,46:19.7,53:56.8,457.103,,,,,,,
146,19:54.8,30:48.9,654.123,,,,,,,
147,53:50.3,05:30.8,700.519,,,,,,,
148,27:43.3,38:39.4,656.188,,,,,,,
149,01:17.1,10:50.2,573.058,,,,,,,
150,34:10.5,42:55.3,524.763,,,,,,,
151,06:19.2,15:42.1,562.853,,,,,,,
152,38:25.9,49:11.9,646.005,,,,,,,
153,11:24.5,23:03.3,698.871,,,,,,,
154,45:52.2,56:59.4,667.196,,,,,,,
155,22:23.6,30:39.9,496.366,,,,,,,
156,27:48.1,34:14.0,385.874,,,,,,,
157,01:11.5,11:41.3,629.718,,,,,,,
158,35:05.6,46:45.5,699.95,,,,,,,
159,09:00.2,20:10.3,670.059,,,,,,,
160,42:39.5,52:29.0,589.486,,,,,,,
161,15:42.6,24:30.5,527.97,,,,,,,
162,47:58.1,57:07.3,549.168,,,,,,,
163,20:00.5,30:30.1,629.684,,,,,,,
164,52:45.2,04:18.8,693.614,,,,,,,
165,26:52.7,38:15.2,682.466,,,,,,,
166,02:55.6,12:01.6,546.074,,,,,,,
167,09:25.6,14:17.2,291.68,,,,,,,
168,42:29.2,52:28.2,598.988,,,,,,,
169,16:20.8,27:56.2,695.429,,,,,,,
170,50:16.6,01:38.4,681.828,,,,,,,
171,24:00.4,34:07.1,606.636,,,,,,,
172,57:12.5,06:07.3,534.845,,,,,,,
173,29:36.5,38:34.5,538.007,,,,,,,
174,01:36.8,11:49.4,612.607,,,,,,,
175,34:09.3,45:34.6,685.33,,,,,,,
176,07:57.8,19:30.7,692.88,,,,,,,
177,43:34.4,53:21.2,586.742,,,,,,,
178,22:04.5,26:14.1,249.651,,,,,,,
179,51:31.1,53:47.5,136.319,,,,,,,
180,23:48.2,33:09.3,561.067,,,,,,,
181,57:36.2,09:02.8,686.591,,,,,,,
182,31:32.5,43:03.6,691.073,,,,,,,
183,05:20.1,15:44.0,623.844,,,,,,,
184,38:40.3,47:45.3,544.996,,,,,,,
185,11:13.7,20:03.7,529.952,,,,,,,
186,43:14.5,53:09.9,595.365,,,,,,,
187,15:36.5,26:50.8,674.385,,,,,,,
188,49:07.1,00:46.0,698.851,,,,,,,
189,24:19.4,34:39.3,619.841,,,,,,,
190,02:00.5,07:57.1,356.653,,,,,,,
191,05:09.1,13:43.8,514.684,,,,,,,
192,38:51.9,50:04.9,673.053,,,,,,,
193,12:48.1,24:25.6,697.423,,,,,,,
194,46:38.7,57:19.2,640.486,,,,,,,
195,20:06.2,29:24.1,557.884,,,,,,,
196,52:49.5,01:35.0,525.448,,,,,,,
197,24:53.1,34:31.8,578.623,,,,,,,
198,57:06.4,08:07.6,661.19,,,,,,,
199,30:20.5,42:01.2,700.755,,,,,,,
200,05:09.9,15:56.3,646.352,,,,,,,
201,42:13.6,49:28.0,434.347,,,,,,,
202,46:32.8,54:10.6,457.834,,,,,,,
203,20:08.0,31:02.4,654.371,,,,,,,
204,54:03.5,05:44.0,700.503,,,,,,,
205,27:56.4,38:52.5,656.018,,,,,,,
206,01:30.3,11:03.1,572.881,,,,,,,
207,34:23.5,43:08.3,524.762,,,,,,,
208,06:32.2,15:55.2,563.04,,,,,,,
209,38:38.8,49:25.0,646.199,,,,,,,
210,11:37.6,23:16.5,698.915,,,,,,,
211,46:05.6,57:12.6,666.978,,,,,,,
212,22:37.4,30:53.0,495.696,,,,,,,
213,28:01.1,34:27.9,386.804,,,,,,,
214,01:24.7,11:54.8,630.036,,,,,,,
215,35:18.8,46:58.7,699.978,,,,,,,
216,09:13.4,20:23.3,669.909,,,,,,,
217,42:52.6,52:41.9,589.294,,,,,,,
218,15:55.6,24:43.5,527.923,,,,,,,
219,48:11.1,57:20.4,549.328,,,,,,,
220,20:13.4,30:43.3,629.891,,,,,,,
221,52:58.3,04:32.0,693.697,,,,,,,
222,27:06.1,38:28.4,682.309,,,,,,,
223,03:09.3,12:14.8,545.527,,,,,,,
224,09:38.4,14:31.4,292.974,,,,,,,
225,42:42.4,52:41.8,599.385,,,,,,,
226,16:34.0,28:09.5,695.505,,,,,,,
227,50:29.8,01:51.5,681.705,,,,,,,
228,24:13.6,34:20.0,606.438,,,,,,,
229,57:25.5,06:20.3,534.755,,,,,,,
230,29:49.4,38:47.5,538.135,,,,,,,
231,01:49.8,12:02.6,612.82,,,,,,,
232,34:22.4,45:47.8,685.448,,,,,,,
233,08:11.1,19:43.9,692.78,,,,,,,
234,43:48.1,53:34.4,586.296,,,,,,,
235,22:18.8,26:26.9,248.029,,,,,,,
236,51:43.3,54:02.4,139.149,,,,,,,
237,24:01.4,33:22.9,561.554,,,,,,,
238,57:49.4,09:16.2,686.72,,,,,,,
239,31:45.8,43:16.7,690.982,,,,,,,
240,05:33.3,15:56.9,623.643,,,,,,,
241,38:53.4,47:58.3,544.869,,,,,,,
242,11:26.7,20:16.7,530.04,,,,,,,
243,43:27.5,53:23.1,595.576,,,,,,,
244,15:49.5,27:04.0,674.532,,,,,,,
245,49:20.4,00:59.2,698.803,,,,,,,
246,24:33.0,34:52.4,619.48,,,,,,,
247,02:14.5,08:10.1,355.571,,,,,,,
248,05:22.2,13:57.5,515.278,,,,,,,
249,39:05.1,50:18.3,673.238,,,,,,,
250,13:01.3,24:38.7,697.367,,,,,,,
251,46:51.9,57:32.2,640.299,,,,,,,
252,20:19.3,29:37.0,557.727,,,,,,,
253,53:02.5,01:48.0,525.492,,,,,,,
254,25:06.1,34:44.9,578.825,,,,,,,
255,57:19.4,08:20.8,661.363,,,,,,,
256,30:33.7,42:14.4,700.755,,,,,,,
257,05:23.4,16:09.5,646.067,,,,,,,
258,42:27.5,49:41.0,433.515,,,,,,,
259,46:45.9,54:24.4,458.565,,,,,,,
260,20:21.2,31:15.8,654.62,,,,,,,
261,54:16.7,05:57.2,700.487,,,,,,,
262,28:09.6,39:05.5,655.847,,,,,,,
263,01:43.4,11:16.1,572.703,,,,,,,
264,34:36.5,43:21.3,524.761,,,,,,,
265,06:45.1,16:08.3,563.226,,,,,,,
266,38:51.8,49:38.2,646.391,,,,,,,
267,11:50.8,23:29.8,698.959,,,,,,,
268,46:19.0,57:25.8,666.76,,,,,,,
269,22:51.1,31:06.2,495.026,,,,,,,
270,28:14.2,34:41.9,387.732,,,,,,,
271,01:37.9,12:08.3,630.353,,,,,,,
272,35:32.0,47:12.0,700.008,,,,,,,
273,09:26.6,20:36.4,669.76,,,,,,,
274,43:05.8,52:54.9,589.103,,,,,,,
275,16:08.6,24:56.5,527.876,,,,,,,
276,48:24.0,57:33.5,549.49,,,,,,,
277,20:26.4,30:56.5,630.097,,,,,,,
278,53:11.5,04:45.3,693.78,,,,,,,
279,27:19.5,38:41.6,682.152,,,,,,,
280,03:22.9,12:27.9,544.979,,,,,,,
281,09:51.3,14:45.6,294.26,,,,,,,
282,42:55.6,52:55.4,599.78,,,,,,,
283,16:47.2,28:22.8,695.58,,,,,,,
284,50:43.0,02:04.6,681.582,,,,,,,
285,24:26.7,34:33.0,606.242,,,,,,,
286,57:38.6,06:33.2,534.667,,,,,,,
287,30:02.3,39:00.6,538.263,,,,,,,
288,02:02.7,12:15.8,613.033,,,,,,,
289,34:35.5,46:01.0,685.565,,,,,,,
290,08:24.4,19:57.1,692.68,,,,,,,
291,44:01.7,53:47.5,585.848,,,,,,,
292,22:33.2,26:39.6,246.392,,,,,,,
293,51:55.4,54:17.4,141.912,,,,,,,
294,24:14.5,33:36.6,562.038,,,,,,,
295,58:02.6,09:29.5,686.847,,,,,,,
296,31:59.0,43:29.9,690.89,,,,,,,
297,05:46.4,16:09.9,623.453,,,,,,,
298,39:06.5,48:11.2,544.744,,,,,,,
299,11:39.6,20:29.7,530.13,,,,,,,
300,43:40.4,53:36.2,595.789,,,,,,,
301,16:02.6,27:17.2,674.68,,,,,,,
302,49:33.6,01:12.4,698.754,,,,,,,
303,24:46.5,35:05.6,619.118,,,,,,,
304,02:28.6,08:23.1,354.481,,,,,,,
305,05:35.4,14:11.2,515.868,,,,,,,
306,39:18.3,50:31.7,673.423,,,,,,,
307,13:14.6,24:51.9,697.311,,,,,,,
308,47:05.1,57:45.2,640.114,,,,,,,
309,20:32.4,29:50.0,557.573,,,,,,,
310,53:15.5,02:01.0,525.538,,,,,,,
311,25:19.0,34:58.0,579.03,,,,,,,
312,57:32.5,08:34.0,661.536,,,,,,,
313,30:46.9,42:27.7,700.754,,,,,,,
314,05:36.9,16:22.7,645.78,,,,,,,
315,42:41.4,49:54.1,432.677,,,,,,,
316,46:59.0,54:38.3,459.292,,,,,,,
317,20:34.4,31:29.3,654.864,,,,,,,
318,54:29.9,06:10.4,700.471,,,,,,,
319,28:22.8,39:18.5,655.677,,,,,,,
320,01:56.5,11:29.0,572.526,,,,,,,
321,34:49.5,43:34.3,524.761,,,,,,,
322,06:58.0,16:21.4,563.413,,,,,,,
323,39:04.8,49:51.4,646.584,,,,,,,
324,12:04.0,23:43.0,699.002,,,,,,,
325,46:32.5,57:39.0,666.541,,,,,,,
326,23:04.9,31:19.3,494.352,,,,,,,
327,28:27.2,34:55.9,388.655,,,,,,,
328,01:51.1,12:21.8,630.669,,,,,,,
329,35:45.2,47:25.2,700.034,,,,,,,
330,09:39.8,20:49.4,669.61,,,,,,,
331,43:18.9,53:07.8,588.912,,,,,,,
332,16:21.6,25:09.4,527.831,,,,,,,
333,48:36.9,57:46.6,549.652,,,,,,,
334,20:39.4,31:09.7,630.303,,,,,,,
335,53:24.6,04:58.5,693.862,,,,,,,
336,27:32.8,38:54.8,681.994,,,,,,,
337,03:36.6,12:41.1,544.43,,,,,,,
338,10:04.2,14:59.7,295.538,,,,,,,
339,43:08.8,53:08.9,600.173,,,,,,,
340,17:00.5,28:36.1,695.655,,,,,,,
341,50:56.2,02:17.7,681.459,,,,,,,
342,24:39.9,34:45.9,606.045,,,,,,,
343,57:51.6,06:46.2,534.579,,,,,,,
344,30:15.3,39:13.7,538.392,,,,,,,
345,02:15.7,12:28.9,613.246,,,,,,,
346,34:48.6,46:14.2,685.681,,,,,,,
347,08:37.7,20:10.3,692.579,,,,,,,
348,44:15.3,54:00.7,585.399,,,,,,,
349,22:47.5,26:52.3,244.745,,,,,,,
350,52:07.6,54:32.3,144.625,,,,,,,
351,24:27.7,33:50.2,562.521,,,,,,,
352,58:15.9,09:42.8,686.974,,,,,,,
353,32:12.2,43:43.0,690.798,,,,,,,
354,05:59.6,16:22.9,623.257,,,,,,,
355,39:19.5,48:24.2,544.619,,,,,,,
356,11:52.6,20:42.8,530.219,,,,,,,
357,43:53.3,53:49.3,596.001,,,,,,,
358,16:15.6,27:30.4,674.827,,,,,,,
359,49:46.9,01:25.6,698.705,,,,,,,
360,25:00.0,35:18.8,618.755,,,,,,,
361,02:42.6,08:36.0,353.389,,,,,,,
362,05:48.5,14:24.9,516.459,,,,,,,
363,39:31.5,50:45.1,673.607,,,,,,,
364,13:27.8,25:05.0,697.254,,,,,,,
365,47:18.3,57:58.2,639.927,,,,,,,
366,20:45.5,30:02.9,557.417,,,,,,,
367,53:28.4,02:14.0,525.583,,,,,,,
368,25:31.9,35:11.2,579.233,,,,,,,
369,57:45.5,08:47.2,661.707,,,,,,,
370,31:00.1,42:40.9,700.753,,,,,,,
371,05:50.4,16:35.9,645.493,,,,,,,
372,42:55.3,50:07.1,431.841,,,,,,,
373,47:12.1,54:52.1,460.021,,,,,,,
374,20:47.6,31:42.7,655.111,,,,,,,
375,54:43.1,06:23.6,700.454,,,,,,,
376,28:36.0,39:31.5,655.505,,,,,,,
377,02:09.6,11:41.9,572.348,,,,,,,
378,35:02.5,43:47.3,524.759,,,,,,,
379,07:10.9,16:34.5,563.599,,,,,,,
380,39:17.8,50:04.6,646.775,,,,,,,
381,12:17.1,23:56.2,699.044,,,,,,,
382,46:45.9,57:52.2,666.322,,,,,,,
383,23:18.7,31:32.4,493.68,,,,,,,
384,28:40.2,35:09.8,389.58,,,,,,,
385,02:04.3,12:35.3,630.986,,,,,,,
386,35:58.4,47:38.5,700.061,,,,,,,
387,09:53.0,21:02.5,669.46,,,,,,,
388,43:32.0,53:20.8,588.719,,,,,,,
389,16:34.6,25:22.4,527.783,,,,,,,
390,48:49.8,57:59.7,549.812,,,,,,,
391,20:52.3,31:22.8,630.508,,,,,,,
392,53:37.7,05:11.7,693.943,,,,,,,
393,27:46.2,39:08.0,681.836,,,,,,,
394,03:50.3,12:54.2,543.882,,,,,,,
395,10:17.1,15:13.9,296.818,,,,,,,
396,43:22.0,53:22.5,600.568,,,,,,,
397,17:13.7,28:49.4,695.73,,,,,,,
398,51:09.4,02:30.8,681.334,,,,,,,
399,24:53.0,34:58.9,605.846,,,,,,,
400,58:04.7,06:59.1,534.489,,,,,,,
401,30:28.2,39:26.7,538.519,,,,,,,
402,02:28.6,12:42.1,613.458,,,,,,,
403,35:01.7,46:27.5,685.797,,,,,,,
404,08:51.0,20:23.5,692.478,,,,,,,
405,44:28.9,54:13.8,584.951,,,,,,,
406,23:01.9,27:05.0,243.095,,,,,,,
407,52:19.9,54:47.2,147.303,,,,,,,
408,24:40.9,34:03.9,563.006,,,,,,,
409,58:29.1,09:56.2,687.101,,,,,,,
410,32:25.4,43:56.1,690.708,,,,,,,
411,06:12.8,16:35.8,623.059,,,,,,,
412,39:32.6,48:37.1,544.492,,,,,,,
413,12:05.5,20:55.8,530.306,,,,,,,
414,44:06.3,54:02.5,596.212,,,,,,,
415,16:28.7,27:43.6,674.972,,,,,,,
416,50:00.2,01:38.8,698.656,,,,,,,
417,25:13.6,35:32.0,618.393,,,,,,,
418,02:56.7,08:49.0,352.3,,,,,,,
419,06:01.6,14:38.7,517.055,,,,,,,
420,39:44.7,50:58.5,673.787,,,,,,,
421,13:41.0,25:18.2,697.19,,,,,,,
422,47:31.4,58:11.2,639.739,,,,,,,
423,20:58.6,30:15.8,557.26,,,,,,,
424,53:41.4,02:27.0,525.632,,,,,,,
425,25:44.8,35:24.3,579.431,,,,,,,
426,57:58.5,09:00.4,661.882,,,,,,,
427,31:13.3,42:54.1,700.751,,,,,,,
428,06:03.9,16:49.1,645.206,,,,,,,
429,43:09.2,50:20.2,431.004,,,,,,,
430,47:25.2,55:05.9,460.749,,,,,,,
431,21:00.8,31:56.2,655.358,,,,,,,
432,54:56.4,06:36.8,700.436,,,,,,,
433,28:49.2,39:44.5,655.333,,,,,,,
434,02:22.7,11:54.9,572.169,,,,,,,
435,35:15.5,44:00.3,524.757,,,,,,,
436,07:23.8,16:47.6,563.784,,,,,,,
437,39:30.8,50:17.8,646.966,,,,,,,
438,12:30.3,24:09.4,699.086,,,,,,,
439,46:59.3,58:05.4,666.103,,,,,,,
440,23:32.5,31:45.5,493.007,,,,,,,
441,28:53.3,35:23.8,390.502,,,,,,,
442,02:17.5,12:48.8,631.301,,,,,,,
443,36:11.6,47:51.7,700.087,,,,,,,
444,10:06.2,21:15.5,669.309,,,,,,,
445,43:45.2,53:33.7,588.526,,,,,,,
446,16:47.6,25:35.4,527.736,,,,,,,
447,49:02.8,58:12.7,549.972,,,,,,,
448,21:05.3,31:36.0,630.713,,,,,,,
449,53:50.9,05:24.9,694.024,,,,,,,
450,27:59.6,39:21.2,681.677,,,,,,,
451,04:04.0,13:07.4,543.332,,,,,,,
452,10:30.0,15:28.1,298.09,,,,,,,
453,43:35.1,53:36.1,600.961,,,,,,,
454,17:26.9,29:02.7,695.804,,,,,,,
455,51:22.6,02:43.8,681.21,,,,,,,
456,25:06.2,35:11.8,605.649,,,,,,,
457,58:17.7,07:12.1,534.4,,,,,,,
458,30:41.1,39:39.8,538.647,,,,,,,
459,02:41.6,12:55.2,613.669,,,,,,,
460,35:14.7,46:40.7,685.913,,,,,,,
461,09:04.4,20:36.7,692.377,,,,,,,
462,44:42.5,54:27.0,584.502,,,,,,,
463,23:16.3,27:17.7,241.43,,,,,,,
464,52:32.1,55:02.0,149.924,,,,,,,
465,24:54.0,34:17.5,563.488,,,,,,,
466,58:42.3,10:09.5,687.227,,,,,,,
467,32:38.6,44:09.2,690.615,,,,,,,
468,06:25.9,16:48.8,622.863,,,,,,,
469,39:45.7,48:50.0,544.367,,,,,,,
470,12:18.5,21:08.9,530.395,,,,,,,
471,44:19.2,54:15.6,596.424,,,,,,,
472,16:41.7,27:56.8,675.118,,,,,,,
473,50:13.4,01:52.0,698.606,,,,,,,
474,25:27.1,35:45.2,618.029,,,,,,,
475,03:10.7,09:01.9,351.202,,,,,,,
476,06:14.8,14:52.4,517.643,,,,,,,
477,39:57.9,51:11.9,673.97,,,,,,,
478,13:54.2,25:31.3,697.133,,,,,,,
479,47:44.6,58:24.2,639.552,,,,,,,
480,21:11.7,30:28.8,557.105,,,,,,,
481,53:54.4,02:40.0,525.678,,,,,,,
482,25:57.8,35:37.4,579.635,,,,,,,
483,58:11.5,09:13.6,662.053,,,,,,,
484,31:26.5,43:07.3,700.748,,,,,,,
485,06:17.3,17:02.3,644.917,,,,,,,
486,43:23.1,50:33.2,430.163,,,,,,,
487,47:38.3,55:19.7,461.47,,,,,,,
488,21:14.0,32:09.6,655.603,,,,,,,
489,55:09.6,06:50.0,700.418,,,,,,,
490,29:02.4,39:57.5,655.161,,,,,,,
491,02:35.8,12:07.8,571.991,,,,,,,
492,35:28.5,44:13.3,524.757,,,,,,,
493,07:36.8,17:00.7,563.971,,,,,,,
494,39:43.8,50:31.0,647.158,,,,,,,
495,12:43.5,24:22.6,699.127,,,,,,,
496,47:12.7,58:18.6,665.882,,,,,,,
497,23:46.3,31:58.6,492.331,,,,,,,
498,29:06.3,35:37.7,391.419,,,,,,,
499,02:30.7,13:02.3,631.616,,,,,,,
500,36:24.8,48:04.9,700.112,,,,,,,
501,10:19.4,21:28.5,669.158,,,,,,,
502,43:58.3,53:46.6,588.334,,,,,,,
503,17:00.7,25:48.4,527.691,,,,,,,
504,49:15.7,58:25.8,550.133,,,,,,,
505,21:18.3,31:49.2,630.918,,,,,,,
506,54:04.0,05:38.1,694.104,,,,,,,
507,28:12.9,39:34.4,681.52,,,,,,,
508,04:17.7,13:20.5,542.781,,,,,,,
509,10:42.9,15:42.2,299.355,,,,,,,
510,43:48.3,53:49.7,601.353,,,,,,,
511,17:40.1,29:16.0,695.878,,,,,,,
512,51:35.8,02:56.9,681.085,,,,,,,
513,25:19.3,35:24.8,605.451,,,,,,,
514,58:30.7,07:25.1,534.312,,,,,,,
515,30:54.1,39:52.9,538.775,,,,,,,
516,02:54.5,13:08.4,613.881,,,,,,,
517,35:27.8,46:53.9,686.028,,,,,,,
518,09:17.7,20:49.9,692.274,,,,,,,
519,44:56.1,54:40.2,584.056,,,,,,,
520,23:30.6,27:30.4,239.755,,,,,,,
521,52:44.3,55:16.9,152.506,,,,,,,
522,25:07.2,34:31.2,563.97,,,,,,,
523,58:55.5,10:22.8,687.353,,,,,,,
524,32:51.8,44:22.3,690.521,,,,,,,
525,06:39.1,17:01.8,622.665,,,,,,,
526,39:58.7,49:03.0,544.241,,,,,,,
527,12:31.4,21:21.9,530.483,,,,,,,
528,44:32.1,54:28.8,596.634,,,,,,,
529,16:54.8,28:10.0,675.264,,,,,,,
530,50:26.7,02:05.2,698.555,,,,,,,
531,25:40.7,35:58.3,617.665,,,,,,,
532,03:24.8,09:14.9,350.103,,,,,,,
533,06:27.9,15:06.1,518.228,,,,,,,
534,40:11.1,51:25.3,674.158,,,,,,,
535,14:07.4,25:44.5,697.081,,,,,,,
536,47:57.8,58:37.1,639.363,,,,,,,
537,21:24.8,30:41.7,556.948,,,,,,,
538,54:07.3,02:53.1,525.716,,,,,,,
539,26:10.7,35:50.5,579.839,,,,,,,
540,58:24.5,09:26.8,662.22,,,,,,,
541,31:39.8,43:20.5,700.745,,,,,,,
542,06:30.8,17:15.4,644.629,,,,,,,
543,43:37.0,50:46.3,429.324,,,,,,,
544,47:51.4,55:33.6,462.198,,,,,,,
545,21:27.2,32:23.1,655.849,,,,,,,
546,55:22.8,07:03.2,700.4,,,,,,,
547,29:15.5,40:10.5,654.988,,,,,,,
548,02:48.9,12:20.7,571.811,,,,,,,
549,35:41.5,44:26.3,524.754,,,,,,,
550,07:49.7,17:13.9,564.154,,,,,,,
551,39:56.8,50:44.1,647.347,,,,,,,
552,12:56.6,24:35.8,699.167,,,,,,,
553,47:26.1,58:31.8,665.662,,,,,,,
554,24:00.0,32:11.7,491.658,,,,,,,
555,29:19.3,35:51.7,392.341,,,,,,,
556,02:43.9,13:15.8,631.931,,,,,,,
557,36:38.0,48:18.2,700.137,,,,,,,
558,10:32.6,21:41.6,669.001,,,,,,,
559,44:11.4,53:59.6,588.141,,,,,,,
560,17:13.7,26:01.3,527.642,,,,,,,
561,49:28.6,58:38.9,550.287,,,,,,,
562,21:31.2,32:02.4,631.125,,,,,,,
563,54:17.1,05:51.3,694.182,,,,,,,
564,28:26.3,39:47.6,681.364,,,,,,,
565,04:31.4,13:33.6,542.232,,,,,,,
566,10:55.7,15:56.4,300.618,,,,,,,
567,44:01.5,54:03.2,601.745,,,,,,,
568,17:53.3,29:29.3,695.953,,,,,,,
569,51:49.0,03:10.0,680.955,,,,,,,
570,25:32.5,35:37.7,605.248,,,,,,,
571,58:43.8,07:38.0,534.217,,,,,,,
572,31:07.0,40:05.9,538.897,,,,,,,
573,03:07.5,13:21.6,614.093,,,,,,,
574,35:40.9,47:07.1,686.139,,,,,,,
575,09:31.0,21:03.1,692.167,,,,,,,
576,45:09.7,54:53.3,583.609,,,,,,,
577,23:45.0,27:43.1,238.077,,,,,,,
578,52:56.6,55:31.7,155.059,,,,,,,
579,25:20.4,34:44.8,564.452,,,,,,,
580,59:08.7,10:36.2,687.473,,,,,,,
581,33:05.0,44:35.4,690.423,,,,,,,
582,06:52.2,17:14.7,622.471,,,,,,,
583,40:11.8,49:15.9,544.112,,,,,,,
584,12:44.4,21:34.9,530.571,,,,,,,
585,44:45.1,54:41.9,596.842,,,,,,,
586,17:07.8,28:23.2,675.408,,,,,,,
587,50:39.9,02:18.4,698.505,,,,,,,
588,25:54.2,36:11.5,617.302,,,,,,,
589,03:38.8,09:27.8,349.006,,,,,,,
590,06:41.0,15:19.9,518.818,,,,,,,
591,40:24.3,51:38.7,674.341,,,,,,,
592,14:20.6,25:57.6,697.022,,,,,,,
593,48:10.9,58:50.1,639.174,,,,,,,
594,21:37.8,30:54.6,556.791,,,,,,,
595,54:20.3,03:06.1,525.759,,,,,,,
596,26:23.6,36:03.7,580.039,,,,,,,
597,58:37.6,09:39.9,662.389,,,,,,,
598,31:53.0,43:33.7,700.742,,,,,,,
599,06:44.3,17:28.6,644.341,,,,,,,
600,43:50.9,50:59.3,428.484,,,,,,,
601,48:04.5,55:47.4,462.923,,,,,,,
602,21:40.4,32:36.5,656.095,,,,,,,
603,55:36.0,07:16.4,700.381,,,,,,,
604,29:28.7,40:23.5,654.814,,,,,,,
605,03:02.0,12:33.7,571.632,,,,,,,
606,35:54.5,44:39.2,524.752,,,,,,,
607,08:02.6,17:27.0,564.338,,,,,,,
608,40:09.8,50:57.3,647.536,,,,,,,
609,13:09.8,24:49.0,699.207,,,,,,,
610,47:39.6,58:45.0,665.441,,,,,,,
611,24:13.8,32:24.8,490.983,,,,,,,
612,29:32.3,36:05.6,393.258,,,,,,,
613,02:57.1,13:29.3,632.246,,,,,,,
614,36:51.3,48:31.4,700.164,,,,,,,
615,10:45.8,21:54.6,668.849,,,,,,,
616,44:24.6,54:12.5,587.947,,,,,,,
617,17:26.7,26:14.3,527.594,,,,,,,
618,49:41.6,58:52.0,550.447,,,,,,,
619,21:44.2,32:15.5,631.328,,,,,,,
620,54:30.2,06:04.5,694.261,,,,,,,
621,28:39.6,40:00.8,681.204,,,,,,,
622,04:45.1,13:46.8,541.681,,,,,,,
623,11:08.6,16:10.5,301.877,,,,,,,
624,44:14.7,54:16.8,602.137,,,,,,,
625,18:06.5,29:42.5,696.025,,,,,,,
626,52:02.2,03:23.0,680.831,,,,,,,
627,25:45.6,35:50.7,605.049,,,,,,,
628,58:56.8,07:50.9,534.127,,,,,,,
629,31:20.0,40:19.0,539.024,,,,,,,
630,03:20.4,13:34.7,614.303,,,,,,,
631,35:54.0,47:20.3,686.252,,,,,,,
632,09:44.3,21:16.3,692.064,,,,,,,
633,45:23.3,55:06.5,583.158,,,,,,,
634,23:59.4,27:55.8,236.385,,,,,,,
635,53:08.9,55:46.5,157.565,,,,,,,
636,25:33.5,34:58.4,564.933,,,,,,,
637,59:21.9,10:49.5,687.598,,,,,,,
638,33:18.2,44:48.5,690.328,,,,,,,
639,07:05.4,17:27.7,622.273,,,,,,,
640,40:24.9,49:28.9,543.986,,,,,,,
641,12:57.3,21:48.0,530.658,,,,,,,
642,44:58.0,54:55.1,597.051,,,,,,,
643,17:20.9,28:36.4,675.552,,,,,,,
644,50:53.2,02:31.7,698.453,,,,,,,
645,26:07.8,36:24.7,616.937,,,,,,,
646,03:52.9,09:40.8,347.903,,,,,,,
647,06:54.2,15:33.6,519.405,,,,,,,
648,40:37.5,51:52.1,674.523,,,,,,,
649,14:33.8,26:10.8,696.963,,,,,,,
650,48:24.1,59:03.1,638.985,,,,,,,
651,21:50.9,31:07.6,556.634,,,,,,,
652,54:33.3,03:19.1,525.802,,,,,,,
653,26:36.5,36:16.8,580.24,,,,,,,
654,58:50.6,09:53.1,662.558,,,,,,,
655,32:06.2,43:46.9,700.738,,,,,,,
656,06:57.8,17:41.8,644.052,,,,,,,
657,44:04.8,51:12.4,427.642,,,,,,,
658,48:17.6,56:01.2,463.642,,,,,,,
659,21:53.6,32:49.9,656.34,,,,,,,
660,55:49.2,07:29.6,700.361,,,,,,,
661,29:41.9,40:36.6,654.64,,,,,,,
662,03:15.1,12:46.6,571.452,,,,,,,
663,36:07.5,44:52.2,524.749,,,,,,,
664,08:15.5,17:40.1,564.522,,,,,,,
665,40:22.8,51:10.5,647.725,,,,,,,
666,13:23.0,25:02.2,699.247,,,,,,,
667,47:53.0,58:58.2,665.22,,,,,,,
668,24:27.6,32:37.9,490.307,,,,,,,
669,29:45.4,36:19.6,394.183,,,,,,,
670,03:10.3,13:42.8,632.56,,,,,,,
671,37:04.5,48:44.7,700.195,,,,,,,
672,10:59.0,22:07.7,668.695,,,,,,,
673,44:37.7,54:25.4,587.748,,,,,,,
674,17:39.7,26:27.3,527.55,,,,,,,
675,49:54.5,59:05.1,550.605,,,,,,,
676,21:57.2,32:28.7,631.528,,,,,,,
677,54:43.4,06:17.7,694.34,,,,,,,
678,28:53.0,40:14.0,681.042,,,,,,,
679,04:58.8,13:59.9,541.13,,,,,,,
680,11:21.5,16:24.7,303.136,,,,,,,
681,44:27.9,54:30.4,602.529,,,,,,,
682,18:19.7,29:55.8,696.096,,,,,,,
683,52:15.4,03:36.1,680.704,,,,,,,
684,25:58.8,36:03.6,604.848,,,,,,,
685,59:09.9,08:03.9,534.036,,,,,,,
686,31:32.9,40:32.0,539.149,,,,,,,
687,03:33.4,13:47.9,614.507,,,,,,,
688,36:07.1,47:33.5,686.365,,,,,,,
689,09:57.6,21:29.6,691.966,,,,,,,
690,45:37.0,55:19.7,582.708,,,,,,,
691,24:13.8,28:08.4,234.689,,,,,,,
692,53:21.2,56:01.3,160.044,,,,,,,
693,25:46.7,35:12.1,565.416,,,,,,,
694,59:35.1,11:02.8,687.731,,,,,,,
695,33:31.4,45:01.6,690.236,,,,,,,
696,07:18.6,17:40.6,622.069,,,,,,,
697,40:37.9,49:41.8,543.857,,,,,,,
698,13:10.3,22:01.0,530.742,,,,,,,
699,45:11.0,55:08.2,597.261,,,,,,,
700,17:33.9,28:49.6,675.695,,,,,,,
701,51:06.5,02:44.9,698.401,,,,,,,
702,26:21.3,36:37.9,616.573,,,,,,,
703,04:06.9,09:53.7,346.805,,,,,,,
704,07:07.3,15:47.3,519.994,,,,,,,
705,40:50.7,52:05.4,674.705,,,,,,,
706,14:47.0,26:23.9,696.899,,,,,,,
707,48:37.3,59:16.1,638.795,,,,,,,
708,22:04.0,31:20.5,556.474,,,,,,,
709,54:46.3,03:32.1,525.847,,,,,,,
710,26:49.5,36:29.9,580.438,,,,,,,
711,59:03.6,10:06.3,662.729,,,,,,,
712,32:19.4,44:00.1,700.733,,,,,,,
713,07:11.3,17:55.0,643.764,,,,,,,
714,44:18.6,51:25.5,426.802,,,,,,,
715,48:30.7,56:15.0,464.368,,,,,,,
716,22:06.8,33:03.4,656.585,,,,,,,
717,56:02.4,07:42.7,700.341,,,,,,,
718,29:55.1,40:49.6,654.464,,,,,,,
719,03:28.3,12:59.5,571.27,,,,,,,
720,36:20.5,45:05.2,524.744,,,,,,,
721,08:28.5,17:53.2,564.703,,,,,,,
722,40:35.8,51:23.7,647.912,,,,,,,
723,13:36.1,25:15.4,699.285,,,,,,,
724,48:06.4,59:11.4,664.999,,,,,,,
725,24:41.4,32:51.0,489.633,,,,,,,
726,29:58.4,36:33.5,395.103,,,,,,,
727,03:23.5,13:56.3,632.875,,,,,,,
728,37:17.7,48:57.9,700.219,,,,,,,
729,11:12.2,22:20.7,668.541,,,,,,,
730,44:50.8,54:38.4,587.551,,,,,,,
731,17:52.7,26:40.2,527.498,,,,,,,
732,50:07.4,59:18.2,550.761,,,,,,,
733,22:10.1,32:41.9,631.728,,,,,,,
734,54:56.5,06:30.9,694.418,,,,,,,
735,29:06.4,40:27.3,680.882,,,,,,,
736,05:12.5,14:13.1,540.58,,,,,,,
737,11:34.4,16:38.8,304.396,,,,,,,
738,44:41.0,54:44.0,602.922,,,,,,,
739,18:32.9,30:09.1,696.168,,,,,,,
740,52:28.6,03:49.2,680.576,,,,,,,
741,26:11.9,36:16.6,604.646,,,,,,,
742,59:22.9,08:16.8,533.942,,,,,,,
743,31:45.8,40:45.1,539.272,,,,,,,
744,03:46.3,14:01.0,614.714,,,,,,,
745,36:20.2,47:46.7,686.477,,,,,,,
746,10:10.9,21:42.8,691.862,,,,,,,
747,45:50.6,55:32.8,582.259,,,,,,,
748,24:28.1,28:21.1,232.987,,,,,,,
749,53:33.5,56:16.0,162.493,,,,,,,
750,25:59.8,35:25.7,565.899,,,,,,,
751,59:48.3,11:16.2,687.855,,,,,,,
752,33:44.6,45:14.7,690.14,,,,,,,
753,07:31.7,17:53.6,621.873,,,,,,,
754,40:51.0,49:54.7,543.727,,,,,,,
755,13:23.2,22:14.1,530.826,,,,,,,
756,45:23.9,55:21.4,597.467,,,,,,,
757,17:47.0,29:02.8,675.837,,,,,,,
758,51:19.7,02:58.1,698.349,,,,,,,
759,26:34.8,36:51.1,616.209,,,,,,,
760,04:21.0,10:06.7,345.704,,,,,,,
761,07:20.4,16:01.0,520.584,,,,,,,
762,41:03.9,52:18.8,674.887,,,,,,,
763,15:00.2,26:37.1,696.838,,,,,,,
764,48:50.5,59:29.1,638.607,,,,,,,
765,22:17.1,31:33.4,556.314,,,,,,,
766,54:59.2,03:45.1,525.888,,,,,,,
767,27:02.4,36:43.0,580.636,,,,,,,
768,59:16.6,10:19.5,662.896,,,,,,,
769,32:32.6,44:13.3,700.728,,,,,,,
770,07:24.7,18:08.2,643.475,,,,,,,
771,44:32.5,51:38.5,425.962,,,,,,,
772,48:43.8,56:28.8,465.093,,,,,,,
773,22:20.0,33:16.8,656.83,,,,,,,
774,56:15.6,07:55.9,700.321,,,,,,,
775,30:08.3,41:02.6,654.289,,,,,,,
776,03:41.4,13:12.4,571.088,,,,,,,
777,36:33.5,45:18.2,524.74,,,,,,,
778,08:41.4,18:06.3,564.885,,,,,,,
779,40:48.8,51:36.9,648.099,,,,,,,
780,13:49.3,25:28.6,699.319,,,,,,,
781,48:19.8,59:24.6,664.778,,,,,,,
782,24:55.2,33:04.1,488.958,,,,,,,
783,30:11.4,36:47.4,396.018,,,,,,,
784,03:36.7,14:09.8,633.189,,,,,,,
785,37:30.9,49:11.1,700.242,,,,,,,
786,11:25.3,22:33.7,668.387,,,,,,,
787,45:03.9,54:51.3,587.356,,,,,,,
788,18:05.7,26:53.2,527.449,,,,,,,
789,50:20.3,59:31.3,550.918,,,,,,,
790,22:23.1,32:55.0,631.929,,,,,,,
791,55:09.6,06:44.1,694.495,,,,,,,
792,29:19.7,40:40.5,680.721,,,,,,,
793,05:26.2,14:26.2,540.029,,,,,,,
794,11:47.3,16:52.9,305.649,,,,,,,
795,44:54.2,54:57.5,603.313,,,,,,,
796,18:46.1,30:22.4,696.239,,,,,,,
797,52:41.8,04:02.3,680.447,,,,,,,
798,26:25.1,36:29.5,604.444,,,,,,,
799,59:35.9,08:29.8,533.851,,,,,,,
800,31:58.8,40:58.2,539.397,,,,,,,
801,03:59.3,14:14.2,614.921,,,,,,,
802,36:33.3,47:59.9,686.589,,,,,,,
803,10:24.2,21:56.0,691.758,,,,,,,
804,46:04.2,55:46.0,581.808,,,,,,,
805,24:42.5,28:33.8,231.268,,,,,,,
806,53:45.9,56:30.8,164.9,,,,,,,
807,26:13.0,35:39.4,566.379,,,,,,,
808,00:01.5,11:29.5,687.979,,,,,,,
809,33:57.8,45:27.8,690.043,,,,,,,
810,07:44.9,18:06.6,621.674,,,,,,,
811,41:04.1,50:07.7,543.598,,,,,,,
812,13:36.2,22:27.1,530.912,,,,,,,
813,45:36.8,55:34.5,597.674,,,,,,,
814,18:00.0,29:16.0,675.979,,,,,,,
815,51:33.0,03:11.3,698.297,,,,,,,
816,26:48.4,37:04.2,615.844,,,,,,,
817,04:35.0,10:19.6,344.596,,,,,,,
818,07:33.6,16:14.7,521.171,,,,,,,
819,41:17.1,52:32.2,675.068,,,,,,,
820,15:13.4,26:50.2,696.777,,,,,,,
821,49:03.6,59:42.0,638.416,,,,,,,
822,22:30.2,31:46.4,556.155,,,,,,,
823,55:12.2,03:58.1,525.93,,,,,,,
824,27:15.3,36:56.2,580.835,,,,,,,
825,59:29.6,10:32.7,663.064,,,,,,,
826,32:45.8,44:26.5,700.723,,,,,,,
827,07:38.2,18:21.4,643.185,,,,,,,
828,44:46.4,51:51.6,425.118,,,,,,,
829,48:56.8,56:42.7,465.816,,,,,,,
830,22:33.2,33:30.3,657.074,,,,,,,
831,56:28.8,08:09.1,700.297,,,,,,,
832,30:21.5,41:15.6,654.113,,,,,,,
833,03:54.5,13:25.4,570.906,,,,,,,
834,36:46.5,45:31.2,524.735,,,,,,,
835,08:54.3,18:19.4,565.066,,,,,,,
836,41:01.8,51:50.0,648.286,,,,,,,
837,14:02.5,25:41.8,699.357,,,,,,,
838,48:33.2,59:37.8,664.555,,,,,,,
839,25:08.9,33:17.2,488.283,,,,,,,
840,30:24.5,37:01.4,396.933,,,,,,,
841,03:49.8,14:23.4,633.502,,,,,,,
842,37:44.1,49:24.3,700.265,,,,,,,
843,11:38.5,22:46.8,668.232,,,,,,,
844,45:17.1,55:04.2,587.159,,,,,,,
845,18:18.8,27:06.2,527.398,,,,,,,
846,50:33.3,59:44.3,551.074,,,,,,,
847,22:36.1,33:08.2,632.129,,,,,,,
848,55:22.7,06:57.3,694.572,,,,,,,
849,29:33.1,40:53.7,680.56,,,,,,,
850,05:39.9,14:39.3,539.478,,,,,,,
851,12:00.2,17:07.1,306.901,,,,,,,
852,45:07.4,55:11.1,603.705,,,,,,,
853,18:59.3,30:35.7,696.31,,,,,,,
854,52:55.0,04:15.3,680.318,,,,,,,
855,26:38.2,36:42.4,604.241,,,,,,,
856,59:49.0,08:42.7,533.757,,,,,,,
857,32:11.7,41:11.2,539.519,,,,,,,
858,04:12.2,14:27.3,615.128,,,,,,,
859,36:46.4,48:13.1,686.7,,,,,,,
860,10:37.5,22:09.2,691.653,,,,,,,
861,46:17.8,55:59.2,581.358,,,,,,,
862,24:56.9,28:46.5,229.547,,,,,,,
863,53:58.2,56:45.5,167.29,,,,,,,
864,26:26.1,35:53.0,566.861,,,,,,,
865,00:14.7,11:42.8,688.103,,,,,,,
866,34:11.0,45:40.9,689.946,,,,,,,
867,07:58.0,18:19.5,621.472,,,,,,,
868,41:17.1,50:20.6,543.466,,,,,,,
869,13:49.1,22:40.1,530.995,,,,,,,
870,45:49.8,55:47.6,597.879,,,,,,,
871,18:13.1,29:29.2,676.119,,,,,,,
872,51:46.2,03:24.5,698.244,,,,,,,
873,27:01.9,37:17.4,615.48,,,,,,,
874,04:49.1,10:32.6,343.492,,,,,,,
875,07:46.7,16:28.5,521.761,,,,,,,
876,41:30.3,52:45.6,675.249,,,,,,,
877,15:26.6,27:03.3,696.716,,,,,,,
878,49:16.8,59:55.0,638.223,,,,,,,
879,22:43.3,31:59.3,555.993,,,,,,,
880,55:25.2,04:11.1,525.968,,,,,,,
881,27:28.3,37:09.3,581.031,,,,,,,
882,59:42.7,10:45.9,663.229,,,,,,,
883,32:59.0,44:39.7,700.717,,,,,,,
884,07:51.7,18:34.6,642.897,,,,,,,
885,45:00.3,52:04.6,424.278,,,,,,,
886,49:09.9,56:56.5,466.542,,,,,,,
887,22:46.4,33:43.7,657.319,,,,,,,
888,56:42.0,08:22.3,700.276,,,,,,,
889,30:34.6,41:28.6,653.935,,,,,,,
890,04:07.6,13:38.3,570.721,,,,,,,
891,36:59.4,45:44.2,524.727,,,,,,,
892,09:07.2,18:32.5,565.245,,,,,,,
893,41:14.8,52:03.2,648.47,,,,,,,
894,14:15.6,25:55.0,699.396,,,,,,,
895,48:46.6,59:51.0,664.334,,,,,,,
896,25:22.7,33:30.3,487.612,,,,,,,
897,30:37.5,37:15.3,397.851,,,,,,,
898,04:03.0,14:36.9,633.817,,,,,,,
899,37:57.3,49:37.6,700.288,,,,,,,
900,11:51.7,22:59.8,668.075,,,,,,,
901,45:30.2,55:17.2,586.96,,,,,,,
902,18:31.8,27:19.1,527.344,,,,,,,
903,50:46.2,59:57.4,551.227,,,,,,,
904,22:49.0,33:21.4,632.327,,,,,,,
905,55:35.9,07:10.5,694.646,,,,,,,
906,29:46.5,41:06.9,680.4,,,,,,,
907,05:53.5,14:52.5,538.929,,,,,,,
908,12:13.1,17:21.2,308.154,,,,,,,
909,45:20.6,55:24.7,604.097,,,,,,,
910,19:12.6,30:48.9,696.381,,,,,,,
911,53:08.2,04:28.4,680.188,,,,,,,
912,26:51.3,36:55.4,604.037,,,,,,,
913,00:02.0,08:55.7,533.661,,,,,,,
914,32:24.6,41:24.3,539.64,,,,,,,
915,04:25.2,14:40.5,615.332,,,,,,,
916,36:59.5,48:26.3,686.81,,,,,,,
917,10:50.8,22:22.4,691.549,,,,,,,
918,46:31.4,56:12.3,580.909,,,,,,,
919,25:11.3,28:59.1,227.819,,,,,,,
920,54:10.6,57:00.2,169.654,,,,,,,
921,26:39.3,36:06.6,567.344,,,,,,,
922,00:27.9,11:56.2,688.227,,,,,,,
923,34:24.2,45:54.0,689.847,,,,,,,
924,08:11.2,18:32.5,621.269,,,,,,,
925,41:30.2,50:33.5,543.334,,,,,,,
926,14:02.1,22:53.2,531.076,,,,,,,
927,46:02.7,56:00.8,598.083,,,,,,,
928,18:26.1,29:42.4,676.259,,,,,,,
929,51:59.5,03:37.7,698.19,,,,,,,
930,27:15.5,37:30.6,615.116,,,,,,,
931,05:03.2,10:45.5,342.386,,,,,,,
932,07:59.8,16:42.2,522.351,,,,,,,
933,41:43.5,52:59.0,675.426,,,,,,,
934,15:39.8,27:16.5,696.651,,,,,,,
935,49:30.0,00:08.0,638.033,,,,,,,
936,22:56.4,32:12.2,555.83,,,,,,,
937,55:38.1,04:24.1,526.01,,,,,,,
938,27:41.2,37:22.4,581.222,,,,,,,
939,59:55.7,10:59.1,663.392,,,,,,,
940,33:12.2,44:52.9,700.702,,,,,,,
941,08:05.2,18:47.8,642.601,,,,,,,
942,45:14.2,52:17.7,423.437,,,,,,,
943,49:23.0,57:10.3,467.266,,,,,,,
944,22:59.6,33:57.1,657.564,,,,,,,
945,56:55.2,08:35.5,700.254,,,,,,,
946,30:47.8,41:41.6,653.755,,,,,,,
947,04:20.7,13:51.2,570.535,,,,,,,
948,37:12.4,45:57.2,524.72,,,,,,,
949,09:20.2,18:45.6,565.423,,,,,,,
950,41:27.7,52:16.4,648.651,,,,,,,
951,14:28.8,26:08.2,699.43,,,,,,,
952,49:00.1,00:04.2,664.116,,,,,,,
953,25:36.5,33:43.4,486.936,,,,,,,
954,30:50.5,37:29.3,398.765,,,,,,,
955,04:16.2,14:50.3,634.121,,,,,,,
956,38:10.5,49:50.8,700.31,,,,,,,
957,12:04.9,23:12.8,667.917,,,,,,,
958,45:43.3,55:30.1,586.761,,,,,,,
959,18:44.8,27:32.1,527.291,,,,,,,
960,50:59.1,00:10.5,551.381,,,,,,,
961,23:02.0,33:34.5,632.525,,,,,,,
962,55:49.0,07:23.7,694.721,,,,,,,
963,29:59.8,41:20.1,680.238,,,,,,,
964,06:07.2,15:05.6,538.378,,,,,,,
965,12:26.0,17:35.4,309.397,,,,,,,
966,45:33.7,55:38.2,604.489,,,,,,,
967,19:25.8,31:02.2,696.452,,,,,,,
968,53:21.4,04:41.5,680.058,,,,,,,
969,27:04.5,37:08.3,603.832,,,,,,,
970,00:15.1,09:08.6,533.566,,,,,,,
971,32:37.6,41:37.3,539.761,,,,,,,
972,04:38.1,14:53.6,615.537,,,,,,,
973,37:12.5,48:39.5,686.92,,,,,,,
974,11:04.1,22:35.6,691.444,,,,,,,
975,46:45.0,56:25.5,580.459,,,,,,,
976,25:25.7,29:11.8,226.077,,,,,,,
977,54:23.0,57:14.9,171.986,,,,,,,
978,26:52.5,36:20.3,567.825,,,,,,,
979,00:41.1,12:09.5,688.349,,,,,,,
980,34:37.4,46:07.1,689.749,,,,,,,
981,08:24.4,18:45.4,621.067,,,,,,,
982,41:43.3,50:46.5,543.202,,,,,,,
983,14:15.0,23:06.2,531.159,,,,,,,
984,46:15.6,56:13.9,598.285,,,,,,,
985,18:39.2,29:55.6,676.399,,,,,,,
986,52:12.8,03:50.9,698.136,,,,,,,
987,27:29.0,37:43.8,614.751,,,,,,,
988,05:17.2,10:58.5,341.277,,,,,,,
989,08:13.0,16:55.9,522.939,,,,,,,
990,41:56.8,53:12.4,675.607,,,,,,,
991,15:53.0,27:29.6,696.588,,,,,,,
992,49:43.1,00:21.0,637.839,,,,,,,
993,23:09.5,32:25.1,555.666,,,,,,,
994,55:51.1,04:37.1,526.047,,,,,,,
995,27:54.1,37:35.5,581.413,,,,,,,
996,00:08.7,11:12.3,663.554,,,,,,,
997,33:25.5,45:06.2,700.696,,,,,,,
998,08:18.6,19:01.0,642.31,,,,,,,
999,45:28.1,52:30.7,422.599,,,,,,,
1000,49:36.1,57:24.1,467.99,,,,,,,
1001,23:12.8,34:10.6,657.808,,,,,,,
1002,57:08.4,08:48.7,700.231,,,,,,,
1003,31:01.0,41:54.6,653.577,,,,,,,
1004,04:33.8,14:04.2,570.35,,,,,,,
1005,37:25.4,46:10.1,524.711,,,,,,,
1006,09:33.1,18:58.7,565.601,,,,,,,
1007,41:40.7,52:29.6,648.835,,,,,,,
1008,14:42.0,26:21.5,699.465,,,,,,,
1009,49:13.5,00:17.4,663.896,,,,,,,
1010,25:50.3,33:56.5,486.261,,,,,,,
1011,31:03.5,37:43.2,399.681,,,,,,,
1012,04:29.4,15:03.8,634.435,,,,,,,
1013,38:23.7,50:04.0,700.331,,,,,,,
1014,12:18.1,23:25.9,667.759,,,,,,,
1015,45:56.5,55:43.0,586.561,,,,,,,
1016,18:57.8,27:45.0,527.237,,,,,,,
1017,51:12.1,00:23.6,551.533,,,,,,,
1018,23:15.0,33:47.7,632.722,,,,,,,
1019,56:02.1,07:36.9,694.796,,,,,,,
1020,30:13.2,41:33.3,680.079,,,,,,,
1021,06:20.9,15:18.8,537.829,,,,,,,
1022,12:38.8,17:49.5,310.644,,,,,,,
1023,45:46.9,55:51.8,604.881,,,,,,,
1024,19:39.0,31:15.5,696.527,,,,,,,
1025,53:34.6,04:54.5,679.927,,,,,,,
1026,27:17.6,37:21.3,603.626,,,,,,,
1027,00:28.1,09:21.6,533.469,,,,,,,
1028,32:50.5,41:50.4,539.88,,,,,,,
1029,04:51.1,15:06.8,615.74,,,,,,,
1030,37:25.6,48:52.7,687.029,,,,,,,
1031,11:17.4,22:48.8,691.338,,,,,,,
1032,46:58.6,56:38.6,580.009,,,,,,,
1033,25:40.1,29:24.5,224.332,,,,,,,
1034,54:35.3,57:29.6,174.303,,,,,,,
1035,27:05.6,36:33.9,568.308,,,,,,,
1036,00:54.3,12:22.8,688.473,,,,,,,
1037,34:50.6,46:20.2,689.649,,,,,,,
1038,08:37.5,18:58.4,620.862,,,,,,,
1039,41:56.3,50:59.4,543.067,,,,,,,
1040,14:28.0,23:19.2,531.238,,,,,,,
1041,46:28.6,56:27.1,598.486,,,,,,,
1042,18:52.3,30:08.8,676.537,,,,,,,
1043,52:26.0,04:04.1,698.082,,,,,,,
1044,27:42.6,37:56.9,614.388,,,,,,,
1045,05:31.3,11:11.4,340.171,,,,,,,
1046,08:26.1,17:09.6,523.53,,,,,,,
1047,42:09.9,53:25.7,675.788,,,,,,,
1048,16:06.2,27:42.8,696.525,,,,,,,
1049,49:56.3,00:34.0,637.643,,,,,,,
1050,23:22.6,32:38.1,555.501,,,,,,,
1051,56:04.1,04:50.2,526.082,,,,,,,
1052,28:07.0,37:48.6,581.605,,,,,,,
1053,00:21.7,11:25.4,663.717,,,,,,,
1054,33:38.7,45:19.4,700.688,,,,,,,
1055,08:32.1,19:14.1,642.021,,,,,,,
1056,45:42.0,52:43.8,421.76,,,,,,,
1057,49:49.2,57:37.9,468.718,,,,,,,
1058,23:26.0,34:24.0,658.052,,,,,,,
1059,57:21.6,09:01.8,700.208,,,,,,,
1060,31:14.2,42:07.6,653.397,,,,,,,
1061,04:46.9,14:17.1,570.162,,,,,,,
1062,37:38.4,46:23.1,524.7,,,,,,,
1063,09:46.0,19:11.8,565.777,,,,,,,
1064,41:53.7,52:42.8,649.017,,,,,,,
1065,14:55.2,26:34.7,699.501,,,,,,,
1066,49:26.9,00:30.6,663.674,,,,,,,
1067,26:04.1,34:09.7,485.589,,,,,,,
1068,31:16.6,37:57.1,400.598,,,,,,,
1069,04:42.6,15:17.3,634.75,,,,,,,
1070,38:36.9,50:17.3,700.353,,,,,,,
1071,12:31.3,23:38.9,667.6,,,,,,,
1072,46:09.6,55:56.0,586.361,,,,,,,
1073,19:10.8,27:58.0,527.18,,,,,,,
1074,51:25.0,00:36.7,551.684,,,,,,,
1075,23:28.0,34:00.9,632.917,,,,,,,
1076,56:15.3,07:50.1,694.87,,,,,,,
1077,30:26.5,41:46.5,679.918,,,,,,,
1078,06:34.6,15:31.9,537.28,,,,,,,
1079,12:51.7,18:03.6,311.891,,,,,,,
1080,46:00.1,56:05.3,605.274,,,,,,,
1081,19:52.2,31:28.8,696.598,,,,,,,
1082,53:47.8,05:07.6,679.795,,,,,,,
1083,27:30.8,37:34.2,603.419,,,,,,,
1084,00:41.2,09:34.5,533.37,,,,,,,
1085,33:03.4,42:03.4,539.998,,,,,,,
1086,05:04.0,15:20.0,615.942,,,,,,,
1087,37:38.7,49:05.9,687.137,,,,,,,
1088,11:30.8,23:02.0,691.233,,,,,,,
1089,47:12.2,56:51.8,579.561,,,,,,,
1090,25:54.5,29:37.1,222.58,,,,,,,
1091,54:47.7,57:44.3,176.594,,,,,,,
1092,27:18.8,36:47.6,568.79,,,,,,,
1093,01:07.5,12:36.1,688.595,,,,,,,
1094,35:03.8,46:33.3,689.549,,,,,,,
1095,08:50.7,19:11.3,620.657,,,,,,,
1096,42:09.4,51:12.3,542.931,,,,,,,
1097,14:40.9,23:32.3,531.317,,,,,,,
1098,46:41.5,56:40.2,598.688,,,,,,,
1099,19:05.3,30:22.0,676.675,,,,,,,
1100,52:39.3,04:17.3,698.028,,,,,,,
1101,27:56.1,38:10.1,614.024,,,,,,,
1102,05:45.3,11:24.4,339.062,,,,,,,
1103,08:39.2,17:23.3,524.119,,,,,,,
1104,42:23.1,53:39.1,675.969,,,,,,,
1105,16:19.4,27:55.9,696.461,,,,,,,
1106,50:09.5,00:46.9,637.447,,,,,,,
1107,23:35.6,32:51.0,555.336,,,,,,,
1108,56:17.0,05:03.2,526.118,,,,,,,
1109,28:20.0,38:01.8,581.798,,,,,,,
1110,00:34.8,11:38.6,663.88,,,,,,,
1111,33:51.9,45:32.6,700.682,,,,,,,
1112,08:45.6,19:27.3,641.732,,,,,,,
1113,45:55.9,52:56.8,420.918,,,,,,,
1114,50:02.3,57:51.7,469.442,,,,,,,
1115,23:39.2,34:37.5,658.295,,,,,,,
1116,57:34.8,09:15.0,700.184,,,,,,,
1117,31:27.4,42:20.6,653.216,,,,,,,
1118,05:00.0,14:30.0,569.975,,,,,,,
1119,37:51.4,46:36.1,524.69,,,,,,,
1120,09:58.9,19:24.9,565.953,,,,,,,
1121,42:06.7,52:55.9,649.2,,,,,,,
1122,15:08.3,26:47.9,699.536,,,,,,,
1123,49:40.3,00:43.8,663.451,,,,,,,
1124,26:17.8,34:22.8,484.916,,,,,,,
1125,31:29.6,38:11.1,401.511,,,,,,,
1126,04:55.8,15:30.8,635.064,,,,,,,
1127,38:50.1,50:30.5,700.373,,,,,,,
1128,12:44.5,23:51.9,667.441,,,,,,,
1129,46:22.7,56:08.9,586.16,,,,,,,
1130,19:23.8,28:11.0,527.125,,,,,,,
1131,51:37.9,00:49.7,551.835,,,,,,,
1132,23:40.9,34:14.0,633.113,,,,,,,
1133,56:28.4,08:03.3,694.944,,,,,,,
1134,30:39.9,41:59.7,679.756,,,,,,,
1135,06:48.3,15:45.0,536.73,,,,,,,
1136,13:04.6,18:17.8,313.131,,,,,,,
1137,46:13.2,56:18.9,605.665,,,,,,,
1138,20:05.4,31:42.0,696.667,,,,,,,
1139,54:01.0,05:20.6,679.663,,,,,,,
1140,27:43.9,37:47.1,603.212,,,,,,,
